,역명,이름,주소,전화번호,위도,경도,링크
0,가산디지털단지,진한약국,서울 금천구 가산동 43-1,02-855-2728,37.48182817618732,126.88317395159812,http://place.map.kakao.com/13508943
1,가산디지털단지,봄빛약국,서울 금천구 가산동 371-41,02-6244-8275,37.48065011931704,126.88092927576231,http://place.map.kakao.com/1871375876
2,가산디지털단지,프라자약국,서울 금천구 가산동 371-28,02-2026-0011,37.48043949966569,126.88204325168243,http://place.map.kakao.com/11266628
3,가산디지털단지,대명약국,서울 금천구 가산동 50-3,02-866-2728,37.48139894118442,126.88372749071958,http://place.map.kakao.com/13504854
4,가산디지털단지,중앙메디칼약국,서울 금천구 가산동 459-11,02-863-1012,37.4819842234389,126.881537695702,http://place.map.kakao.com/13509576
5,가산디지털단지,가디온누리약국,서울 금천구 가산동 371-41,02-6674-5544,37.48071114372704,126.88068722950004,http://place.map.kakao.com/1138432504
6,가산디지털단지,리더스약국,서울 금천구 가산동 60-15,02-835-1157,37.48034702225,126.884194927608,http://place.map.kakao.com/13110060
7,청량리,삼화약국,서울 동대문구 청량리동 264,02-962-5324,37.5808673572996,127.045810031901,http://place.map.kakao.com/11254801
8,청량리,청량리중앙약국,서울 동대문구 전농동 591-53,02-3707-1588,37.58055638748145,127.04838653158087,http://place.map.kakao.com/16080108
9,청량리,바다약국,서울 동대문구 청량리동 758,02-957-1110,37.5800535076229,127.04410684607099,http://place.map.kakao.com/114600634
10,청량리,성모약국,서울 동대문구 청량리동 750,02-960-7784,37.580226338576985,127.04453262080796,http://place.map.kakao.com/746864543
11,청량리,다나은약국,서울 동대문구 청량리동 744,02-960-1005,37.58070924589926,127.04459970326552,http://place.map.kakao.com/1391830775
12,청량리,바오로약국,서울 동대문구 청량리동 235-4,02-967-3761,37.582081341399004,127.04721915360099,http://place.map.kakao.com/9005986
13,청량리,동산약국,서울 동대문구 청량리동 235-4,02-963-5500,37.58251907087243,127.0476009623132,http://place.map.kakao.com/13512316
14,청량리,신우약국,서울 동대문구 청량리동 743-1,02-961-8833,37.5808569277963,127.044813761664,http://place.map.kakao.com/13500672
15,청량리,정화약국,서울 동대문구 청량리동 742,02-967-9941,37.58098578962159,127.04476176138378,http://place.map.kakao.com/10719232
16,종로5가,보령약국,서울 종로구 종로5가 124-4,02-763-8181,37.57114280202421,127.00034525116823,http://place.map.kakao.com/11058267
17,종로5가,온유약국,서울 종로구 종로5가 102,02-745-5487,37.5711238801615,127.000588624794,http://place.map.kakao.com/332392090
18,종로5가,종로백제약국,서울 종로구 종로5가 36-1,02-745-8495,37.571260765356705,127.00399360013901,http://place.map.kakao.com/8519376
19,종로5가,종로5가백화점약국,서울 종로구 종로5가 214-1,02-2264-1161,37.570759820008895,127.00374906889799,http://place.map.kakao.com/10398617
20,종로5가,종로약국,서울 종로구 종로4가 8,02-745-3184,37.5711166716871,126.99931628972901,http://place.map.kakao.com/8520072
21,종로5가,열린약국,서울 종로구 종로4가 185,02-2264-8210,37.5706914035499,127.00028525498101,http://place.map.kakao.com/9885727
22,종로5가,우정약국,서울 종로구 종로4가 177,02-2277-8566,37.57057607643002,126.99987774805365,http://place.map.kakao.com/11430032
23,종로5가,종로중앙약국,서울 종로구 종로5가 85-5,02-744-7233,37.5713103744519,127.00176474681001,http://place.map.kakao.com/63697816
24,종로5가,종근당약국,서울 종로구 종로5가 193-20,02-2274-1311,37.570770645841705,127.00328269969101,http://place.map.kakao.com/10804754
25,종로5가,종오약국,서울 종로구 종로4가 7,02-763-7771,37.57112838537553,126.99946118188723,http://place.map.kakao.com/10000643
26,종로5가,종로5가미래약국,서울 종로구 종로5가 91,02-766-5466,37.57118964755884,127.00125988456035,http://place.map.kakao.com/10803639
27,종로5가,종로우리약국,서울 종로구 종로4가 182,02-2275-4700,37.57068689890154,127.0000622580279,http://place.map.kakao.com/11232289
28,종로5가,백수약국,서울 종로구 종로5가 42-1,02-766-1083,37.5712499601309,127.003789844482,http://place.map.kakao.com/7886554
29,종로5가,김해약국,서울 종로구 종로5가 138-8,02-2267-1551,37.5706950061002,127.00064748356002,http://place.map.kakao.com/8241050
30,종로5가,부광약국,서울 종로구 종로5가 62-1,02-762-8844,37.57122476426219,127.00260919611405,http://place.map.kakao.com/11055358
31,종로5가,유한약국,서울 종로구 종로5가 193-1,02-2272-4746,37.570781454453105,127.003400424585,http://place.map.kakao.com/23882825
32,종로5가,유성약국,서울 종로구 종로5가 182-4,02-2263-9666,37.57072381870739,127.00222770653387,http://place.map.kakao.com/8536536
33,종로5가,종로백세약국,서울 종로구 종로5가 76,02-744-2536,37.57125450319819,127.00231714818622,http://place.map.kakao.com/18478070
34,종로5가,신백제약국,서울 종로구 종로5가 20-1,02-745-8492,37.571312989347575,127.00489012603303,http://place.map.kakao.com/1846981664
35,종로5가,동서약국,서울 종로구 종로5가 182-3,02-2278-2140,37.5707562519876,127.00235901546199,http://place.map.kakao.com/9089631
36,종로5가,동아약국,서울 종로구 종로4가 149-1,02-2285-5702,37.570590488589396,126.999049151345,http://place.map.kakao.com/8269506
37,종로5가,보배종로약국,서울 종로구 종로5가 193-4,02-2276-1773,37.570772456134655,127.00296914534442,http://place.map.kakao.com/655612260
38,종로5가,종로오가약국,서울 종로구 종로5가 88-7,02-763-8855,37.571185139444104,127.00152589783,http://place.map.kakao.com/713595294
39,종로5가,엄마약국,서울 종로구 종로4가 9-6,02-765-6564,37.57104909609119,126.99916800232552,http://place.map.kakao.com/182325722
40,종로5가,보생약국,서울 종로구 종로4가 6-3,02-763-7876,37.571066217404535,126.99964682539611,http://place.map.kakao.com/8366257
41,종로5가,일신약국,서울 종로구 종로5가 182-2,02-2264-7885,37.570781476967774,127.00249937998909,http://place.map.kakao.com/1969959970
42,종로5가,공생약국,서울 종로구 종로5가 193-17,02-2277-1366,37.5707670475861,127.003069890046,http://place.map.kakao.com/8743513
43,종로5가,새동서약국,서울 종로구 종로5가 138-19,02-2285-1055,37.5704499250491,127.00169001711159,http://place.map.kakao.com/27403009
44,종로5가,동시약국,서울 종로구 종로4가 165-1,02-2268-4055,37.57062743298535,127.00023884424436,http://place.map.kakao.com/10294918
45,종로5가,엄약국,서울 종로구 종로5가 52-1,02-763-0380,37.571249983023705,127.00299293572701,http://place.map.kakao.com/25503076
46,종로5가,광장약국,서울 종로구 종로4가 9-2,02-2272-0380,37.57106981937483,126.99922573256191,http://place.map.kakao.com/10152545
47,종로5가,인제약국,서울 종로구 종로4가 153-1,02-2266-4312,37.5706337372864,126.999171402836,http://place.map.kakao.com/10735458
48,종로5가,새종로약국,서울 종로구 종로4가 2-16,02-3672-8558,37.57109414877518,126.9999501933065,http://place.map.kakao.com/11652830
49,종로5가,종로시장약국,서울 종로구 종로5가 43-1,02-764-8887,37.57123915289032,127.00364042356459,http://place.map.kakao.com/58565603
50,종로5가,종로태양약국,서울 종로구 종로4가 10,02-766-1777,37.5710770256733,126.999003866358,http://place.map.kakao.com/39208948
51,종로5가,종로삼성약국,서울 종로구 종로5가 231-1,02-2285-5631,37.570779598886396,127.004920654229,http://place.map.kakao.com/2034079807
52,종로5가,금송약국,서울 종로구 종로5가 193-5,02-2275-5982,37.570777865308706,127.002838969524,http://place.map.kakao.com/349993822
53,종각,종로엔약국,서울 종로구 종로2가 8-4,02-739-9856,37.5704885807391,126.984632495583,http://place.map.kakao.com/733425349
54,종각,송송약국,서울 종로구 청진동 146,02-733-4425,37.57083385488068,126.97991665281309,http://place.map.kakao.com/997573583
55,종각,광교약국,서울 종로구 관철동 287,02-734-4690,37.569086425333865,126.98312051194254,http://place.map.kakao.com/13509935
56,종각,제일약국,서울 종로구 청진동 41-2,02-739-3447,37.5720954731464,126.981286016426,http://place.map.kakao.com/18650613
57,종각,수약국,서울 종로구 청진동 70,02-778-5985,37.57074400827586,126.9814629411162,http://place.map.kakao.com/12125570
58,종각,대도약국,서울 종로구 견지동 109,02-737-4510,37.572475086246364,126.98324426620424,http://place.map.kakao.com/1454897546
59,종각,종각팜약국,서울 종로구 종로2가 84-8,02-738-6500,37.5698939646347,126.98494956434999,http://place.map.kakao.com/150968564
60,종각,하나약국,서울 중구 무교동 1,02-755-5155,37.568765108459424,126.97956178067345,http://place.map.kakao.com/10859987
61,종각,힐링약국,서울 종로구 청진동 136,02-723-6593,37.5710321661356,126.98046673666799,http://place.map.kakao.com/943018389
62,종각,바로약국,서울 종로구 청진동 70,02-2158-7900,37.5709602435767,126.981440248159,http://place.map.kakao.com/26302971
63,종각,따뜻한약국,서울 종로구 청진동 146,02-2075-7333,37.5706068013799,126.97990086629999,http://place.map.kakao.com/27531143
64,종각,참약국,서울 종로구 종로1가 24,02-737-4855,37.570844667978704,126.97992344170869,http://place.map.kakao.com/13513378
65,종각,인앤아웃약국,서울 종로구 청진동 146,02-2075-7505,37.570844667978704,126.979923441709,http://place.map.kakao.com/19120470
66,종각,푸른소나무약국,서울 종로구 수송동 58,02-2198-5333,37.5724523471755,126.981797586992,http://place.map.kakao.com/16526798
67,종각,대박약국,서울 종로구 청진동 146,02-2075-7171,37.570844667978704,126.979923441709,http://place.map.kakao.com/27255107
68,종각,송이약국,서울 종로구 종로1가 24,02-720-1777,37.570844667978704,126.979923441709,http://place.map.kakao.com/1550871461
69,종각,하늘약국,서울 종로구 종로1가 24,02-733-9006,37.570801411726734,126.979873646822,http://place.map.kakao.com/241856286
70,종각,건강누리약국,서울 종로구 청진동 146,,37.570844667978704,126.979923441709,http://place.map.kakao.com/1683428295
71,제기동,평제약국,서울 동대문구 제기동 1193,02-963-6919,37.583015186680896,127.03578502130101,http://place.map.kakao.com/13511685
72,제기동,남진약국,서울 동대문구 제기동 838-20,02-967-8145,37.58282659744994,127.03949384742859,http://place.map.kakao.com/13508647
73,제기동,동암당약국,서울 동대문구 제기동 900,02-967-6741,37.5824231554216,127.038882277762,http://place.map.kakao.com/13505318
74,제기동,원보당약국,서울 동대문구 제기동 889-15,02-957-5001,37.581915606337155,127.03698002856943,http://place.map.kakao.com/24662107
75,제기동,염광당약국,서울 동대문구 제기동 907-5,02-962-3469,37.58173483819,127.03875512108101,http://place.map.kakao.com/1613243815
76,제기동,신우당,서울 동대문구 제기동 930-3,02-960-3888,37.582059408106,127.03810317885299,http://place.map.kakao.com/23288629
77,제기동,보창백옥약국,서울 동대문구 제기동 930-2,,37.5821422994959,127.038103221098,http://place.map.kakao.com/2145223084
78,제기동,엘림당약국,서울 동대문구 제기동 890-19,,37.5811191266924,127.036984163107,http://place.map.kakao.com/13512241
79,동묘앞,정성약국,서울 종로구 숭인동 1051,02-923-1363,37.5751259280365,127.021594629573,http://place.map.kakao.com/9390203
80,동묘앞,숭인약국,서울 종로구 숭인동 1266,02-929-0754,37.57548528689272,127.02233621741671,http://place.map.kakao.com/9218092
81,동묘앞,가까운약국,서울 성북구 보문동7가 112-1,02-3291-5354,37.579550496861685,127.02273479826849,http://place.map.kakao.com/24211965
82,동묘앞,열린온누리약국,서울 종로구 숭인동 1057,02-2242-3552,37.5755620308701,127.02147702356301,http://place.map.kakao.com/13565110
83,회기,코아약국,서울 동대문구 휘경동 320-7,02-959-6380,37.59009892790092,127.05623925620195,http://place.map.kakao.com/16878638
84,회기,삼익약국,서울 동대문구 휘경동 183-378,02-963-5490,37.59172797052409,127.05800004919573,http://place.map.kakao.com/17249134
85,회기,크로바약국,서울 동대문구 휘경동 276-45,02-2217-7682,37.5897399562135,127.06236900101801,http://place.map.kakao.com/10026232
86,회기,우리들위생약국,서울 동대문구 휘경동 276-49,02-2212-0612,37.58977254710454,127.062074642445,http://place.map.kakao.com/11194584
87,회기,영림약국,서울 동대문구 휘경동 254,02-2245-9388,37.59049501067131,127.06232547279379,http://place.map.kakao.com/16792589
88,회기,국민약국,서울 동대문구 회기동 346-18,02-962-5008,37.5907990562353,127.05611863028824,http://place.map.kakao.com/543515169
89,회기,메디팜사랑약국,서울 동대문구 휘경동 276-57,02-2213-5005,37.5896426801869,127.06231004279499,http://place.map.kakao.com/9959873
90,회기,한가람약국,서울 동대문구 휘경동 269-9,02-3394-4865,37.59019347244504,127.06176588523424,http://place.map.kakao.com/11485194
91,창동,창동종로약국,서울 도봉구 창동 135-15,02-992-2376,37.6527225101203,127.04697147983272,http://place.map.kakao.com/10764070
92,창동,종로프라자약국,서울 도봉구 창동 75-1,02-990-7248,37.65208015466161,127.04685775539622,http://place.map.kakao.com/16419401
93,창동,더튼튼약국,서울 도봉구 창동 74-16,02-999-0105,37.65218211720586,127.04647479788936,http://place.map.kakao.com/2131417114
94,창동,즐거운약국,서울 도봉구 창동 134-36,02-990-3083,37.652994931971776,127.04614780610252,http://place.map.kakao.com/12263415
95,창동,보화당약국,서울 도봉구 창동 10-3,02-995-2929,37.65298134965725,127.05070217696924,http://place.map.kakao.com/16415095
96,창동,태평양약국,서울 도봉구 창동 13-3,02-999-5006,37.6535391189971,127.050559770422,http://place.map.kakao.com/11495563
97,창동,가야온누리약국,서울 도봉구 창동 331-1,02-997-4540,37.6519481698194,127.04568594741899,http://place.map.kakao.com/10120721
98,창동,스타빌약국,서울 도봉구 창동 135-28,02-904-1592,37.65250536296438,127.04699740676838,http://place.map.kakao.com/16057681
99,창동,창동이화약국,서울 도봉구 창동 338,02-906-0101,37.6514471266693,127.045934941999,http://place.map.kakao.com/16054045
100,창동,초롱약국,서울 도봉구 창동 331-2,02-902-7070,37.652059732965654,127.04609396706923,http://place.map.kakao.com/932012547
101,창동,신원약국,서울 도봉구 창동 74-8,02-992-1038,37.652546167636224,127.04633904011493,http://place.map.kakao.com/11252265
102,용산,스타약국,서울 용산구 한강로3가 40-999,,37.5297736038262,126.96474274711599,http://place.map.kakao.com/662584424
103,용산,우리약국,서울 용산구 한강로3가 40-999,02-2012-1507,37.529555382329825,126.96414776382252,http://place.map.kakao.com/13507087
104,용산,종로프라자약국,서울 용산구 한강로3가 40-999,02-2012-1276,37.529834825887185,126.96458885518338,http://place.map.kakao.com/13506903
105,용산,3층파란문약국,서울 용산구 한강로2가 420,02-796-9008,37.527041838966014,126.96498613196073,http://place.map.kakao.com/64603574
106,용산,래미안스타약국,서울 용산구 한강로2가 422,02-2088-3335,37.52881729364106,126.96664835876766,http://place.map.kakao.com/315468281
107,용산,하늘약국,서울 용산구 한강로2가 422,02-3785-2202,37.5288190969221,126.966652883289,http://place.map.kakao.com/412885496
108,용산,우리서울약국,서울 용산구 한강로2가 422,02-3785-1233,37.52887134030677,126.96660081876442,http://place.map.kakao.com/851969461
109,용산,나음약국,서울 용산구 한강로2가 422,02-6402-1155,37.5288190969221,126.966652883289,http://place.map.kakao.com/1851423552
110,용산,2층써밋약국,서울 용산구 한강로2가 420,02-797-8920,37.52705986905942,126.96502006266954,http://place.map.kakao.com/1430235624
111,외대앞,이룸약국,서울 동대문구 이문동 64,02-960-4773,37.60105940697106,127.06834292623795,http://place.map.kakao.com/13512962
112,오류동,태양약국,서울 구로구 오류동 10-1,02-2685-1017,37.4956264878232,126.842317080298,http://place.map.kakao.com/13510089
113,오류동,오류온누리약국,서울 구로구 오류동 39-5,02-2612-7156,37.4960205473317,126.843234489872,http://place.map.kakao.com/8495083
114,오류동,봄약국,서울 구로구 오류동 54-4,02-2617-7773,37.4956898002736,126.84385600696001,http://place.map.kakao.com/716143647
115,오류동,한솔약국,서울 구로구 오류동 34-12,02-2613-5613,37.49667769225703,126.84483552360935,http://place.map.kakao.com/16931877
116,오류동,다나약국,서울 구로구 오류동 55-50,02-2611-3393,37.49621371562664,126.844867016193,http://place.map.kakao.com/16682504
117,오류동,구로미소약국,서울 구로구 오류동 135-73,02-2615-0766,37.4934809260157,126.844153368851,http://place.map.kakao.com/1425759066
118,오류동,구로종로약국,서울 구로구 오류동 41-1,02-2688-0155,37.49569806518467,126.8426154689852,http://place.map.kakao.com/11495711
119,오류동,진솔약국,서울 구로구 오류동 37-7,02-2060-0906,37.496533788585,126.844346166389,http://place.map.kakao.com/13513478
120,오류동,성심약국,서울 구로구 오류동 51-31,02-2687-1489,37.495404446992396,126.84337600008699,http://place.map.kakao.com/10473364
121,오류동,오류중앙약국,서울 구로구 오류동 40-4,02-2625-3338,37.495821815766796,126.84285042236601,http://place.map.kakao.com/16592648
122,영등포,금강온누리약국,서울 영등포구 영등포동3가 9-17,02-2678-5869,37.51713321773457,126.90648518806715,http://place.map.kakao.com/20545915
123,영등포,수범약국,서울 영등포구 영등포동4가 425-37,02-2678-2288,37.51632345374863,126.90565141566036,http://place.map.kakao.com/13511687
124,영등포,대명약국,서울 영등포구 영등포동 618-79,02-844-5433,37.5142990318274,126.906954742478,http://place.map.kakao.com/13508650
125,영등포,W스토어 아름다운약국,서울 영등포구 영등포동3가 10-16,02-3667-5617,37.516962159719796,126.906652811983,http://place.map.kakao.com/2143786727
126,영등포,행복한수약국,서울 영등포구 영등포동3가 10-15,02-2672-2340,37.51687223806113,126.90687915406868,http://place.map.kakao.com/26099163
127,영등포,중앙약국,서울 영등포구 영등포동 618-496,02-2678-2268,37.515689948568394,126.90780702069792,http://place.map.kakao.com/11157739
128,영등포,참약국,서울 영등포구 영등포동 618-264,02-6951-1390,37.5139701343125,126.90577879994801,http://place.map.kakao.com/1224561791
129,영등포,우정약국,서울 영등포구 영등포동4가 425-2,02-2631-7083,37.516536362689536,126.90599275349837,http://place.map.kakao.com/1625183349
130,영등포,나은약국,서울 영등포구 영등포동3가 8-1,02-2678-2380,37.518270221604205,126.906406849531,http://place.map.kakao.com/1287334358
131,신도림,신도림역약국,서울 구로구 신도림동 460-26,02-865-1575,37.5087713176456,126.891081970016,http://place.map.kakao.com/2102820154
132,신도림,플러스약국,서울 구로구 신도림동 337,02-3439-8855,37.50982848696211,126.88849712959801,http://place.map.kakao.com/13334391
133,신도림,신도림좋은약국,서울 구로구 구로동 26-2,,37.50632859116069,126.89195072724466,http://place.map.kakao.com/313994631
134,신도림,라온약국,서울 구로구 구로동 3-25,02-837-9998,37.507044203883794,126.890229441901,http://place.map.kakao.com/1775538771
135,신도림,모스팜약국,서울 구로구 구로동 3-25,02-2111-1222,37.507044203883794,126.890229441901,http://place.map.kakao.com/16561632
136,신도림,현대약국,서울 구로구 신도림동 692,0507-1373-0260,37.5081235187566,126.88821351805099,http://place.map.kakao.com/90505763
137,신도림,건강샘온누리약국,서울 구로구 신도림동 337,02-3439-8373,37.5096623730719,126.888149015939,http://place.map.kakao.com/13507079
138,신도림,햇살약국,서울 구로구 신도림동 338,02-2631-4959,37.5105105720321,126.889482394246,http://place.map.kakao.com/13512414
139,신도림,바른굿모닝약국,서울 구로구 신도림동 338,02-2636-8123,37.51070855957529,126.889233269745,http://place.map.kakao.com/1390718627
140,서울역,서울중앙약국,서울 용산구 동자동 43-205,02-313-4483,37.55361923561954,126.97048737272486,http://place.map.kakao.com/11602516
141,서울역,새평화약국,서울 용산구 동자동 35-73,02-3789-4904,37.55181268283749,126.97410719323071,http://place.map.kakao.com/13503636
142,개봉,정광약국,서울 구로구 개봉동 203-6,02-2687-2983,37.4942827227486,126.8583887012384,http://place.map.kakao.com/9384199
143,개봉,365열린약국,서울 구로구 개봉동 203-8,02-3666-0784,37.49394556813724,126.85824007168976,http://place.map.kakao.com/22482697
144,개봉,가람약국,서울 구로구 개봉동 178-13,02-2614-7645,37.4963028285956,126.859184390427,http://place.map.kakao.com/564189872
145,개봉,좋은약국,서울 구로구 개봉동 173-1,02-2615-6999,37.4954131422226,126.858854728841,http://place.map.kakao.com/8073922
146,개봉,정성약국,서울 구로구 고척동 72-7,02-2060-5132,37.496897997375,126.861901832831,http://place.map.kakao.com/16535589
147,개봉,새하늘약국,서울 구로구 개봉동 481,02-2625-1585,37.493148762493725,126.8579769723533,http://place.map.kakao.com/13295529
148,개봉,맑은약국,서울 구로구 개봉동 415,02-2617-2190,37.4945714502602,126.85872740011988,http://place.map.kakao.com/16646972
149,광운대,수암약국,서울 노원구 월계동 383-16,02-915-8466,37.622616698381,127.059605359163,http://place.map.kakao.com/15297501
150,광운대,다나약국,서울 노원구 월계동 411-53,02-943-8409,37.62289064120806,127.0612809226455,http://place.map.kakao.com/21800070
151,금천구청,한사랑약국,서울 금천구 시흥1동 113-115,02-856-3588,37.455746077026504,126.896091232573,http://place.map.kakao.com/16475720
152,남영,다올약국,서울 용산구 청파동3가 80-6,02-702-7083,37.541902630388606,126.970419573872,http://place.map.kakao.com/1227555545
153,남영,미라클약국,서울 용산구 갈월동 101-49,02-795-6050,37.541504879068775,126.97244741982584,http://place.map.kakao.com/129481169
154,남영,신우성약국,서울 용산구 갈월동 93-29,02-714-5392,37.54208862142795,126.9719991184988,http://place.map.kakao.com/9199436
155,남영,애플약국,서울 용산구 청파동3가 80-7,02-469-1020,37.54167558018623,126.97042645272668,http://place.map.kakao.com/2044014110
156,남영,시티온누리약국,서울 용산구 갈월동 89-9,02-715-7800,37.5434382183148,126.971955501622,http://place.map.kakao.com/1122074036
157,남영,사랑플러스약국,서울 용산구 남영동 127-1,02-790-5392,37.5413807350465,126.973291580102,http://place.map.kakao.com/10442324
158,남영,하이약국,서울 용산구 남영동 120-2,02-792-9248,37.541287084073794,126.973526969562,http://place.map.kakao.com/25974480
159,구일,구일중앙약국,서울 구로구 구로동 642-108,02-866-9155,37.495055102162105,126.87200232563131,http://place.map.kakao.com/23711900
160,구일,온누리한라약국,서울 구로구 구로동 685-154,02-862-0157,37.49569383743419,126.87444835283443,http://place.map.kakao.com/9263462
161,녹천,부광약국,서울 도봉구 창동 38-1,02-902-3654,37.64580385667653,127.05333742774435,http://place.map.kakao.com/13501536
162,구로,아이사랑태평양약국,서울 구로구 구로동 586-5,02-853-3001,37.502185731700365,126.88247386119151,http://place.map.kakao.com/19293923
163,구로,구로엔씨온누리약국,서울 구로구 구로동 573,02-6923-2111,37.5011588838246,126.88277403171699,http://place.map.kakao.com/1383612132
164,구로,스타약국,서울 구로구 구로동 603-9,02-2678-2484,37.50341237695447,126.88105033800392,http://place.map.kakao.com/13502933
165,구로,초지약국,서울 구로구 구로2동 497-5,02-866-4098,37.4999875380269,126.882735150678,http://place.map.kakao.com/10085684
166,구로,사랑약국,서울 구로구 구로동 604-19,02-2633-2636,37.5036389760839,126.879712064116,http://place.map.kakao.com/1871034238
167,구로,대림약국,서울 구로구 신도림동 642,02-2679-3553,37.5045484934761,126.880999904057,http://place.map.kakao.com/13513166
168,도봉,도봉태평양약국,서울 도봉구 도봉동 596-18,02-955-6228,37.67774720737142,127.04476655196257,http://place.map.kakao.com/27310499
169,도봉,혜민약국,서울 도봉구 도봉동 603-7,02-954-1653,37.67433305195631,127.04327843408888,http://place.map.kakao.com/16418278
170,도봉,늘푸른약국,서울 도봉구 도봉동 601-1,02-3493-3823,37.67605367464298,127.04394823559328,http://place.map.kakao.com/8861930
171,도봉산,별약국,서울 도봉구 도봉동 559-31,02-6339-2010,37.6871837702841,127.045503480603,http://place.map.kakao.com/307497429
172,독산,가람약국,서울 금천구 가산동 691,02-2225-0048,37.4667442243771,126.886720867332,http://place.map.kakao.com/607798679
173,독산,봄약국,서울 금천구 가산동 691-3,02-839-0492,37.466279736059796,126.887173723172,http://place.map.kakao.com/1898952049
174,방학,진성온누리약국,서울 도봉구 방학동 703-61,02-3494-5177,37.665294692203105,127.042529675789,http://place.map.kakao.com/16443056
175,방학,지안약국,서울 도봉구 방학동 707,02-6338-6337,37.665756489921996,127.043639544029,http://place.map.kakao.com/1843950351
176,방학,쌍문마이팜약국,서울 도봉구 방학동 704-37,02-990-3040,37.6662073760604,127.04255626505713,http://place.map.kakao.com/9202838
177,방학,우리들약국,서울 도봉구 방학동 682-10,02-956-8208,37.66495616350839,127.041858513321,http://place.map.kakao.com/1322161472
178,방학,메디칼약국,서울 도봉구 방학동 703-17,02-3491-5119,37.6649307759231,127.04230732298001,http://place.map.kakao.com/16443864
179,방학,미소약국,서울 도봉구 방학동 707-7,02-954-3119,37.6648501382357,127.043544941819,http://place.map.kakao.com/2036436318
180,방학,한마음약국,서울 도봉구 방학동 716-5,02-3491-6155,37.66640164700018,127.04586935119232,http://place.map.kakao.com/9616810
181,대방,뉴성모제일약국,서울 영등포구 신길동 1432,02-824-7586,37.513815567336295,126.92667727779877,http://place.map.kakao.com/2076025213
182,대방,정한약국,서울 동작구 대방동 339-15,02-867-5504,37.51288844024792,126.92815312669552,http://place.map.kakao.com/1696635661
183,대방,아름약국,서울 영등포구 신길동 1315,02-845-6546,37.5125995628469,126.924375576206,http://place.map.kakao.com/61068474
184,대방,보생사약국,서울 영등포구 신길동 449-23,02-833-2289,37.51302449960487,126.92246586341015,http://place.map.kakao.com/16041029
185,대방,새서울약국,서울 영등포구 신길동 451-19,02-831-6364,37.51177155751381,126.9230078126474,http://place.map.kakao.com/16090966
186,시청,덕수궁돌담약국,서울 중구 태평로2가 344-3,02-318-3758,37.563679315675,126.9764913073,http://place.map.kakao.com/2127168941
187,시청,청실약국,서울 중구 무교동 32-2,02-3789-6953,37.567277456415326,126.97894642672935,http://place.map.kakao.com/1159684591
188,시청,정원약국,서울 중구 태평로2가 52-1,02-755-5866,37.56372458758413,126.97763447042942,http://place.map.kakao.com/9383505
189,시청,수연약국,서울 중구 태평로2가 340-6,02-777-1578,37.56365405021665,126.97630342686091,http://place.map.kakao.com/7969637
190,시청,명약국,서울 중구 을지로1가 32,02-3789-0624,37.5668153435619,126.979503454314,http://place.map.kakao.com/1275660262
191,신설동,드림약국,서울 동대문구 신설동 103-1,02-2231-9196,37.5747794150692,127.024324976378,http://place.map.kakao.com/8949935
192,신설동,하모니약국,서울 동대문구 신설동 89-20,02-926-8800,37.576663981817056,127.0258029206444,http://place.map.kakao.com/959908065
193,신설동,중앙약국,서울 동대문구 신설동 98-27,02-921-1622,37.5761270042587,127.02573368052299,http://place.map.kakao.com/13503177
194,신설동,동신약국,서울 동대문구 신설동 98-8,02-927-0311,37.5759755205207,127.02626342506201,http://place.map.kakao.com/1987806896
195,신설동,으뜸약국,서울 동대문구 용두동 236-1,02-953-3368,37.577031798221135,127.0287882901837,http://place.map.kakao.com/13314814
196,종로3가,종로센트럴약국,서울 종로구 종로3가 20,02-743-1937,37.5706947212092,126.991772883752,http://place.map.kakao.com/97853138
197,종로3가,신세계약국,서울 종로구 종로3가 123,02-945-2636,37.5701288696742,126.991401664525,http://place.map.kakao.com/16527204
198,종로3가,진약국,서울 종로구 돈의동 103-68,02-765-0473,37.5721650923053,126.991043722696,http://place.map.kakao.com/9428014
199,종로3가,성당약국,서울 종로구 낙원동 210,02-765-4342,37.5715486441064,126.989056044586,http://place.map.kakao.com/22539971
200,종로3가,동남약국,서울 종로구 종로3가 123-2,02-2273-3233,37.570104532240826,126.99125790899643,http://place.map.kakao.com/8906887
201,종로3가,태평양약국,서울 종로구 종로3가 132-1,02-2274-6228,37.570056827437206,126.99193142756191,http://place.map.kakao.com/9189596
202,종로3가,보생당약국,서울 종로구 관수동 17-1,02-2267-8830,37.56938540711443,126.98964157638163,http://place.map.kakao.com/13510615
203,종로3가,정약국,서울 종로구 종로3가 10,02-764-6024,37.5706081272171,126.99046434411001,http://place.map.kakao.com/439049127
204,종로3가,국일약국,서울 종로구 관철동 5-1,02-2275-7225,37.5695700067744,126.988512999424,http://place.map.kakao.com/10133800
205,종로3가,다나약국,서울 종로구 종로3가 130,02-2263-9293,37.57013251012128,126.99191783592869,http://place.map.kakao.com/22297932
206,종로3가,대흥사약국,서울 종로구 봉익동 21,02-764-4548,37.572484128297056,126.9922254834512,http://place.map.kakao.com/13501518
207,종로3가,종로성지약국,서울 종로구 묘동 20-5,02-511-8283,37.57114163011581,126.99199470091352,http://place.map.kakao.com/58075430
208,종로3가,위케어 종로3가약국,서울 종로구 묘동 20-5,02-744-7255,37.5711758663973,126.99197205781827,http://place.map.kakao.com/1470392937
209,동대문,종로온누리약국,서울 종로구 창신동 563,02-742-0900,37.5718442144324,127.01045951051628,http://place.map.kakao.com/1185717860
210,동대문,독일약국,서울 종로구 창신동 525,02-764-5511,37.5719124774934,127.012632926821,http://place.map.kakao.com/10305433
211,동대문,보람약국,서울 종로구 창신동 330-2,02-766-3366,37.57230515870626,127.01398685154821,http://place.map.kakao.com/10377196
212,동대문,대경약국,서울 종로구 창신동 143-18,02-744-2434,37.57252158494312,127.01230362006244,http://place.map.kakao.com/8844191
213,동대문,동대문연약국,서울 종로구 종로6가 289-57,02-2274-7889,37.5708172659572,127.008091293794,http://place.map.kakao.com/274322028
214,동대문,창신종로약국,서울 종로구 창신동 647-16,02-3672-0845,37.57373269749415,127.0104869428782,http://place.map.kakao.com/8573166
215,동대문,동인약국,서울 종로구 창신동 687-26,02-743-7371,37.572227128174994,127.0105625749251,http://place.map.kakao.com/13500347
216,동대문,신평화약국,서울 중구 신당동 217-1,02-2233-2587,37.56948801044453,127.01154584917545,http://place.map.kakao.com/10614421
217,동대문,금왕약국,서울 종로구 창신동 131-8,02-763-5493,37.5738803546574,127.011618976056,http://place.map.kakao.com/13509672
218,신길,유진온누리약국,서울 영등포구 신길동 102-8,02-833-3248,37.5145809314584,126.91772702673401,http://place.map.kakao.com/52161666
219,신길,신길봄약국,서울 영등포구 신길동 98-12,02-833-1260,37.514308970542594,126.91923860374399,http://place.map.kakao.com/23483024
220,석계,건강한약국,서울 노원구 월계동 435-9,02-919-1206,37.6169423509823,127.06293539451201,http://place.map.kakao.com/27160434
221,석계,성심 온누리약국,서울 노원구 월계동 929,02-943-1651,37.617234261319794,127.06295376326,http://place.map.kakao.com/11494826
222,석계,뉴석계프라자약국,서울 노원구 월계동 47-13,02-914-5555,37.61529072797328,127.0648062560085,http://place.map.kakao.com/8857155
223,석계,경화당약국,서울 노원구 월계동 46-1,02-919-7167,37.615137327262076,127.06522859663879,http://place.map.kakao.com/16528274
224,석계,푸른바다약국,서울 노원구 월계동 46-1,02-941-3838,37.6152833110868,127.06518568385201,http://place.map.kakao.com/13507188
225,석계,세계로약국,서울 성북구 석관동 133-14,02-962-5446,37.613458294480274,127.06448300398348,http://place.map.kakao.com/13501748
226,석계,무지개온누리약국,서울 노원구 월계동 50-29,02-909-0889,37.614914577230685,127.06395871929328,http://place.map.kakao.com/16417573
227,석계,석계태평양약국,서울 노원구 월계동 493-1,02-915-1190,37.61460849512577,127.06348841592904,http://place.map.kakao.com/10486521
228,석계,온누리두산약국,서울 성북구 석관동 10,02-959-2668,37.61392443129999,127.06713033715094,http://place.map.kakao.com/13510204
229,석계,밝은미소약국,서울 노원구 월계동 47-3,02-942-7507,37.615554055107296,127.064370416698,http://place.map.kakao.com/13509231
230,온수,온수약국,서울 구로구 온수동 23-10,02-2683-0262,37.4921720049449,126.82081244300801,http://place.map.kakao.com/11189876
231,노량진,설약국,서울 동작구 노량진동 44-11,02-825-8272,37.5132814110679,126.93966278681499,http://place.map.kakao.com/2087781447
232,노량진,꿈꾸는약국,서울 동작구 노량진동 54-11,02-821-6500,37.51261331771626,126.94055348959269,http://place.map.kakao.com/326999067
233,노량진,메디팜엔비약국,서울 동작구 노량진동 70-15,02-811-7723,37.513446019850896,126.94273019454599,http://place.map.kakao.com/1992997780
234,노량진,김약국,서울 동작구 노량진동 114-5,02-825-4384,37.513406963809295,126.94395633498199,http://place.map.kakao.com/1705023156
235,노량진,우리약국,서울 동작구 노량진동 67-10,02-826-5116,37.513910280759774,126.94323544414408,http://place.map.kakao.com/16622967
236,노량진,새중앙약국,서울 동작구 노량진동 41-5,02-825-4532,37.5131985693785,126.93802050332701,http://place.map.kakao.com/1098754069
237,노량진,설아래,서울 동작구 노량진동 44-11,02-3280-8245,37.5132859438071,126.939717075798,http://place.map.kakao.com/156975473
238,방배,소화약국,서울 서초구 방배동 910-9,02-558-3400,37.482135472989256,126.99693034793756,http://place.map.kakao.com/7963558
239,방배,서초프라자약국,서울 서초구 방배동 908-8,02-583-4949,37.48234812208476,126.99738824443449,http://place.map.kakao.com/876106596
240,방배,바른온누리약국,서울 서초구 방배동 907-5,070-8808-3000,37.483834761848605,126.996445228488,http://place.map.kakao.com/453459121
241,방배,서경약국,서울 서초구 방배동 910-13,070-8809-9222,37.4827112038184,126.99643849790444,http://place.map.kakao.com/87537966
242,방배,에이스온누리약국,서울 서초구 방배동 984-1,02-525-6623,37.481069606159636,126.99823850829472,http://place.map.kakao.com/18460775
243,방배,센트럴약국,서울 서초구 방배동 909-6,02-525-1731,37.48186337025229,126.997006110797,http://place.map.kakao.com/79328061
244,방배,방일약국,서울 서초구 방배동 913-31,02-582-4204,37.48250030860819,126.99483640179346,http://place.map.kakao.com/9834236
245,방배,방배참약국,서울 서초구 방배동 981-16,02-598-7588,37.481080404882604,126.997496827217,http://place.map.kakao.com/663021868
246,방배,셀메드수약국,서울 서초구 방배동 921,02-525-5339,37.482414672554796,126.99398617308701,http://place.map.kakao.com/1539803506
247,사당,사당소화약국,서울 동작구 사당1동 1043-13,02-521-3474,37.4771982823544,126.981160472796,http://place.map.kakao.com/8451046
248,사당,사당365약국,서울 관악구 남현동 1060-11,02-588-9050,37.475940473590896,126.981165310671,http://place.map.kakao.com/584186579
249,사당,참약사장수약국,서울 관악구 남현동 1058,02-598-1955,37.4763939950936,126.977783750546,http://place.map.kakao.com/1076127751
250,사당,사랑약국,서울 관악구 남현동 1060-3,02-597-1730,37.47615388729288,126.9803931004952,http://place.map.kakao.com/26500518
251,사당,사당13번약국,서울 서초구 방배동 445-5,02-585-2113,37.477061496963,126.982245835566,http://place.map.kakao.com/7921731
252,사당,사당미소약국,서울 관악구 남현동 1061-19,02-586-8009,37.4743763626733,126.98143250354099,http://place.map.kakao.com/1450730830
253,사당,사당역약국,서울 서초구 방배동 443-12,02-582-4912,37.47773266960564,126.98172448836512,http://place.map.kakao.com/2094543716
254,사당,명진팜약국,서울 관악구 남현동 1058-16,,37.476401262055504,126.978099169194,http://place.map.kakao.com/1686510951
255,사당,좋은약국,서울 동작구 사당동 1031-27,02-523-3045,37.4784813519274,126.981362523052,http://place.map.kakao.com/667576774
256,낙성대,낙성대약국,서울 관악구 봉천동 1658-5,02-883-9100,37.476560023399365,126.96411204644316,http://place.map.kakao.com/16268851
257,낙성대,원당프라자약국,서울 관악구 봉천동 1637-1,,37.475389188216134,126.96572021316796,http://place.map.kakao.com/16083982
258,낙성대,늘푸른온누리약국,서울 관악구 봉천동 1686-21,02-873-3431,37.477567099819076,126.96329077973436,http://place.map.kakao.com/10272962
259,낙성대,휴베이스다정약국,서울 관악구 봉천동 1657-5,02-878-0222,37.47636469222228,126.96473619787905,http://place.map.kakao.com/10262752
260,낙성대,수약국,서울 관악구 봉천동 1660-3,070-4607-5784,37.477510715097296,126.96164697719101,http://place.map.kakao.com/27368563
261,낙성대,소망약국,서울 관악구 봉천동 1656-1,02-876-5588,37.475844275539686,126.96598794141069,http://place.map.kakao.com/702405448
262,낙성대,스타약국,서울 관악구 봉천동 1658-16,02-882-4062,37.476470898394865,126.96435967765251,http://place.map.kakao.com/1873150470
263,낙성대,휴베이스 동아약국,서울 관악구 봉천동 1629-2,02-6949-5732,37.4769943120587,126.96126511540399,http://place.map.kakao.com/313184382
264,낙성대,새태평양온누리약국,서울 관악구 봉천동 1634-9,02-3481-1079,37.475426069413054,126.96551331010569,http://place.map.kakao.com/465170188
265,낙성대,삼성웰약국,서울 관악구 봉천동 1658-1,02-875-7114,37.47682204552035,126.96355116993395,http://place.map.kakao.com/1510608650
266,서울대입구,교보약국,서울 관악구 봉천동 858-7,02-878-7582,37.481342451087706,126.95341414246201,http://place.map.kakao.com/813748990
267,서울대입구,애프터팜 윤약국,서울 관악구 봉천동 857-5,02-878-2927,37.480643076529496,126.952930678003,http://place.map.kakao.com/1113181924
268,서울대입구,정온누리약국,서울 관악구 봉천동 869-1,02-882-8993,37.4811145564854,126.951329436479,http://place.map.kakao.com/19779863
269,서울대입구,대동약국,서울 관악구 봉천동 861-14,02-877-0453,37.48179625969625,126.9526597360422,http://place.map.kakao.com/1987832448
270,서울대입구,신화약국,서울 관악구 봉천동 1569-5,02-885-2078,37.479028115824796,126.95205436090201,http://place.map.kakao.com/13620966
271,서울대입구,양지약국,서울 관악구 봉천동 858-12,02-882-2497,37.481652337338204,126.953260185814,http://place.map.kakao.com/2126874995
272,서울대입구,서울센터약국,서울 관악구 봉천동 863-1,02-888-8830,37.4800661019621,126.95211248868,http://place.map.kakao.com/299868024
273,서울대입구,태창온누리약국,서울 관악구 봉천동 1572-17,02-889-6599,37.478712118316224,126.95049210783364,http://place.map.kakao.com/17347512
274,서울대입구,오렌지약국,서울 관악구 봉천동 856-2,02-888-5887,37.48024124595671,126.95297954578156,http://place.map.kakao.com/9883882
275,서울대입구,봉천21세기약국,서울 관악구 봉천동 852-2,02-6959-8006,37.4814768942723,126.953905877341,http://place.map.kakao.com/1563914425
276,서울대입구,참조은약국,서울 관악구 봉천동 869-12,02-872-8722,37.48116244594013,126.95166067477464,http://place.map.kakao.com/1109786423
277,서울대입구,일등약국,서울 관악구 봉천동 1598-1,,37.4789166191912,126.95262085187201,http://place.map.kakao.com/873263538
278,서울대입구,1번약국,서울 관악구 봉천동 853-4,070-4189-7583,37.480686484268205,126.95356096305099,http://place.map.kakao.com/311895871
279,서울대입구,스카이6층약국,서울 관악구 봉천동 862-1,02-872-8941,37.48097161533666,126.9521107801973,http://place.map.kakao.com/659793195
280,서울대입구,더푸른약국,서울 관악구 봉천동 859-17,02-888-7575,37.4825640934822,126.953096806678,http://place.map.kakao.com/1414949368
281,서울대입구,관악소망약국,서울 관악구 봉천동 1600-1,02-878-4568,37.48043174616714,126.953963049406,http://place.map.kakao.com/1320159029
282,서울대입구,다나약국,서울 관악구 봉천동 859-17,02-878-9529,37.482564094379796,126.953099067944,http://place.map.kakao.com/1975754159
283,서울대입구,가은약국,서울 관악구 봉천동 858-3,02-878-9669,37.481627295991004,126.95373506145799,http://place.map.kakao.com/16766195
284,서울대입구,반석온누리약국,서울 관악구 봉천동 859-17,02-876-8838,37.4829102113311,126.953426736757,http://place.map.kakao.com/22643074
285,서울대입구,매직약국,서울 관악구 봉천동 869-4,02-882-1898,37.4810676256385,126.951139524319,http://place.map.kakao.com/1824071359
286,신림,신림4번출구약국,서울 관악구 신림동 1640-6,070-8866-7637,37.4839287757611,126.928940666353,http://place.map.kakao.com/980757181
287,신림,365열린약국,서울 관악구 신림동 1422-42,02-874-2332,37.48456015452663,126.93006847027371,http://place.map.kakao.com/9560292
288,신림,라온온누리약국,서울 관악구 신림동 1421-29,02-889-8875,37.4851511607085,126.92997520428999,http://place.map.kakao.com/1480937532
289,신림,휴베이스대학약국,서울 관악구 신림동 1433-34,02-888-7744,37.48437017157462,126.92877743321905,http://place.map.kakao.com/896776625
290,신림,태평양온누리약국,서울 관악구 신림동 1433-102,02-878-5109,37.48418011271322,126.92738577426857,http://place.map.kakao.com/13508892
291,신림,필약국,서울 관악구 신림동 1433-44,02-6954-0579,37.484375762610895,126.929084967552,http://place.map.kakao.com/965325092
292,신림,호호약국,서울 관악구 신림동 1433-88,02-882-2633,37.48424518841587,126.92771699421745,http://place.map.kakao.com/14973727
293,신림,신림당약국,서울 관악구 신림동 1587-35,02-856-4755,37.48169571726613,126.9283458137379,http://place.map.kakao.com/16766188
294,신림,봄내약국,서울 관악구 신림동 1432-136,02-877-0146,37.485910210483496,126.92764981041799,http://place.map.kakao.com/9046277
295,신림,편한M약국,서울 관악구 신림동 86-3,02-882-0072,37.4825816439611,126.930244431844,http://place.map.kakao.com/19148581
296,신림,엘림약국,서울 관악구 신림동 1641-9,02-876-3304,37.48319417965271,126.92999059843305,http://place.map.kakao.com/16936096
297,신림,5층엔약국,서울 관악구 신림동 1424-28,02-877-3080,37.4855070433317,126.929948866547,http://place.map.kakao.com/1766686192
298,신림,맘이편한약국,서울 관악구 신림동 1432-70,02-888-8848,37.4861850131798,126.929128484926,http://place.map.kakao.com/294049380
299,신림,관악우리약국,서울 관악구 신림동 11-12,02-886-9878,37.48420524155488,126.93175348132318,http://place.map.kakao.com/13513492
300,신림,상쾌한약국,서울 관악구 신림동 1422-5,02-882-3357,37.4847619976698,126.930097679463,http://place.map.kakao.com/1176757696
301,신림,참바른약국,서울 관악구 신림동 1638-1,02-875-2555,37.482288969045975,126.92898857511123,http://place.map.kakao.com/51198944
302,신림,동원약국,서울 관악구 신림동 1425-12,02-883-7525,37.48647713585672,126.92945610968088,http://place.map.kakao.com/13508922
303,신림,고은약국,서울 관악구 신림동 1433-38,02-888-7888,37.484559684770105,126.92927926778499,http://place.map.kakao.com/931534297
304,신림,임약국,서울 관악구 신림동 86-3,02-885-6030,37.4825780452684,126.930253480257,http://place.map.kakao.com/13508740
305,신대방,조양약국,서울 관악구 신사동 517-21,02-851-3245,37.4869899752568,126.914681903959,http://place.map.kakao.com/16676951
306,신대방,신대방수연온누리약국,서울 동작구 신대방1동 618-17,02-841-7935,37.4877921628294,126.912614050443,http://place.map.kakao.com/7966854
307,신대방,푸른약국,서울 관악구 신림동 519-5,02-851-2525,37.4853746409964,126.913679701179,http://place.map.kakao.com/16378103
308,신대방,로뎀약국,서울 관악구 신림동 519-7,02-863-8975,37.485070987471296,126.91366082913844,http://place.map.kakao.com/19237522
309,신대방,중앙약국,서울 관악구 신림동 518-1,02-869-0966,37.4866538660659,126.913397817053,http://place.map.kakao.com/22252209
310,구로디지털단지,구로2호선약국,서울 구로구 구로동,,37.4853146545286,126.901495622507,http://place.map.kakao.com/2114419167
311,구로디지털단지,온누리대산약국,서울 관악구 신림동 1655-16,02-853-4967,37.48292560083126,126.90200076244221,http://place.map.kakao.com/16619332
312,구로디지털단지,황금당약국,서울 구로구 구로동 1124-72,02-861-7585,37.48363818320184,126.89971592052332,http://place.map.kakao.com/17100426
313,구로디지털단지,아침햇살약국,서울 구로구 구로동 1125-5,02-858-4484,37.48339004283586,126.90142578797848,http://place.map.kakao.com/16089576
314,구로디지털단지,신미소약국,서울 관악구 신림동 1643,02-855-9842,37.4843140919331,126.90313865346901,http://place.map.kakao.com/16230477
315,구로디지털단지,제이약국,서울 구로구 구로동 811,02-857-7557,37.4842243501926,126.89925823818399,http://place.map.kakao.com/938929579
316,문래,가까운약국,서울 영등포구 문래동3가 55-5,02-2671-8231,37.517461860294105,126.896494379543,http://place.map.kakao.com/543369784
317,문래,대원약국,서울 영등포구 문래동3가 55-5,02-2633-8703,37.51766987502082,126.89533917549014,http://place.map.kakao.com/13507252
318,문래,맑은약국,서울 영등포구 문래동3가 55-3,02-2165-8210,37.5182326209424,126.89592772952801,http://place.map.kakao.com/7869310
319,문래,피플팜문래약국,서울 영등포구 문래동3가 55-5,02-2672-9672,37.51746186029412,126.8964943795426,http://place.map.kakao.com/9517741
320,용두,마장백화점약국,서울 동대문구 용두동 27-5,02-962-1161,37.576068577848524,127.03847709724238,http://place.map.kakao.com/13502694
321,용두,뉴프라자약국,서울 동대문구 용두동 40-13,02-962-1197,37.57527593130681,127.03776916844046,http://place.map.kakao.com/13511997
322,용두,동대문보건약국,서울 동대문구 용두동 39-906,02-965-7162,37.5749732565652,127.040313816661,http://place.map.kakao.com/13512970
323,홍대입구,홍익약국,서울 마포구 동교동 166-12,02-337-5414,37.556860467719005,126.92461154420299,http://place.map.kakao.com/1726554285
324,홍대입구,소망약국,서울 마포구 동교동 159-1,02-336-0630,37.557209417216605,126.923619770911,http://place.map.kakao.com/291312453
325,홍대입구,성지약국,서울 마포구 동교동 201-35,02-333-4254,37.5567900043525,126.92156040740299,http://place.map.kakao.com/13509554
326,홍대입구,이지약국,서울 마포구 동교동 162-1,02-336-1957,37.555829488745474,126.92284820155662,http://place.map.kakao.com/13507123
327,홍대입구,홍대365약국,서울 마포구 서교동 340-1,02-3141-1084,37.5546882134131,126.926116659133,http://place.map.kakao.com/26089142
328,홍대입구,홍대어울림약국,서울 마포구 서교동 346-1,02-332-9233,37.55569794506053,126.92424263730223,http://place.map.kakao.com/2042244992
329,홍대입구,파마트엘지약국,서울 마포구 동교동 165-8,02-326-1678,37.556003825808155,126.92353159383181,http://place.map.kakao.com/13500349
330,홍대입구,그린이화약국,서울 마포구 서교동 353-1,02-322-8905,37.555308388495,126.920996094787,http://place.map.kakao.com/13507114
331,홍대입구,홍대옵티마약국,서울 마포구 동교동 165-8,02-322-5879,37.55589007615821,126.923186529359,http://place.map.kakao.com/26911483
332,홍대입구,서교연세약국,서울 마포구 동교동 165-1,02-336-8126,37.556743954321604,126.92416688267599,http://place.map.kakao.com/297797692
333,홍대입구,별빛약국,서울 마포구 동교동 198-11,02-332-3909,37.5587812826793,126.923043220289,http://place.map.kakao.com/266619135
334,홍대입구,이화바이오약국,서울 마포구 동교동 165-8,02-332-3508,37.5560776540062,126.92344890116199,http://place.map.kakao.com/26466112
335,신촌,필온누리약국,서울 서대문구 창천동 30-13,02-332-5935,37.555568981585346,126.93623802935232,http://place.map.kakao.com/13513411
336,신촌,올리브약국,서울 마포구 노고산동 57-12,02-335-5606,37.5553603737329,126.93535998299,http://place.map.kakao.com/12075200
337,신촌,고래약국,서울 마포구 노고산동 31,02-333-7967,37.5554400753838,126.936120438921,http://place.map.kakao.com/1926583807
338,신촌,용약국,서울 마포구 노고산동 31-135,02-701-7760,37.554604624168896,126.93737962542801,http://place.map.kakao.com/9284418
339,신촌,맑은약국,서울 서대문구 창천동 29-92,02-363-3668,37.5556356065234,126.93783598418301,http://place.map.kakao.com/1137636806
340,신촌,신촌세민약국,서울 마포구 노고산동 49-9,02-323-0900,37.5557239251201,126.93454029095699,http://place.map.kakao.com/9872251
341,신촌,파인약국,서울 서대문구 창천동 72-85,0507-1470-3307,37.55642811046399,126.93383233233615,http://place.map.kakao.com/1393134723
342,신촌,우리이약국,서울 마포구 노고산동 107-17,070-7617-1520,37.554002412898605,126.936732790307,http://place.map.kakao.com/630549007
343,신촌,신촌성은약국,서울 마포구 노고산동 106-82,02-717-2384,37.554160580925775,126.93597667167738,http://place.map.kakao.com/11285406
344,신촌,더블유스토어연세약국,서울 마포구 노고산동 57-4,02-3141-4358,37.55516593388089,126.935681562017,http://place.map.kakao.com/13513732
345,신촌,엘리트약국,서울 서대문구 창천동 18-52,02-392-5505,37.555664995020365,126.93718521116486,http://place.map.kakao.com/25777399
346,신촌,우정옵티마약국,서울 마포구 노고산동 107-3,02-6012-8600,37.55433401747784,126.93680267640256,http://place.map.kakao.com/13512283
347,신촌,행복가득약국,서울 서대문구 창천동 72-12,02-336-3667,37.5563077611153,126.93452167231199,http://place.map.kakao.com/1504964318
348,신촌,동경약국,서울 마포구 노고산동 49-47,02-334-7668,37.5554718561565,126.934920773993,http://place.map.kakao.com/12616353
349,신촌,신보건약국,서울 서대문구 창천동 62-4,02-336-3165,37.55629380291981,126.93535238623684,http://place.map.kakao.com/13503993
350,신촌,르호봇약국,서울 마포구 노고산동 57-39,02-3141-7891,37.554412465135,126.93525204366001,http://place.map.kakao.com/1644146824
351,신촌,햇살약국,서울 마포구 노고산동 31-90,02-6956-8457,37.5534469037708,126.937496027843,http://place.map.kakao.com/77195179
352,이대,이대행복한약국,서울 서대문구 대현동 60-9,02-873-8881,37.55887233555455,126.94585765261644,http://place.map.kakao.com/544986554
353,이대,한사랑온누리약국,서울 서대문구 대현동 45-9,02-364-5455,37.557074139164904,126.946282231203,http://place.map.kakao.com/13509309
354,이대,에버그린약국,서울 서대문구 대현동 104-5,02-6052-5071,37.5573363922676,126.94258683994543,http://place.map.kakao.com/131754034
355,이대,대흥온누리약국,서울 마포구 대흥동 12-41,02-716-7582,37.556379820898755,126.94318174131314,http://place.map.kakao.com/543872988
356,이대,신명약국,서울 마포구 대흥동 12-27,02-701-7188,37.55638489015369,126.94436667722937,http://place.map.kakao.com/1500359645
357,이대,이로운약국,서울 마포구 대흥동 18-1,02-703-7582,37.55425285393788,126.94570934491041,http://place.map.kakao.com/1303137953
358,이대,라이프약국,서울 마포구 염리동 8-32,02-706-0893,37.5566049360308,126.94676016692672,http://place.map.kakao.com/8320032
359,이대,대흥약국,서울 마포구 대흥동 2-62,02-715-3959,37.5561730719711,126.94612896078002,http://place.map.kakao.com/1129005590
360,이대,은혜약국,서울 마포구 대흥동 2-7,02-707-1613,37.5562344736647,126.946423170373,http://place.map.kakao.com/13508531
361,이대,다나약국,서울 마포구 대흥동 2-39,02-715-3133,37.5557153385434,126.946070439938,http://place.map.kakao.com/9737770
362,이대,자이약국,서울 마포구 대흥동 806,02-707-3682,37.55465558519728,126.94567736455048,http://place.map.kakao.com/1115734565
363,이대,라임약국,서울 마포구 대흥동 12-27,02-703-3311,37.55631999595741,126.94431919211458,http://place.map.kakao.com/27494877
364,이대,미약국,서울 마포구 대흥동 12-25,02-703-0400,37.55647524193637,126.94490419083247,http://place.map.kakao.com/9779150
365,이대,우리약국,서울 마포구 대흥동 2-16,02-715-7290,37.555971392765606,126.94644599355101,http://place.map.kakao.com/10708735
366,이대,파랑새약국,서울 서대문구 대현동 40-5,02-393-3123,37.55714056973721,126.945750256754,http://place.map.kakao.com/1529958392
367,아현,아현종로약국,서울 마포구 아현동 329-9,02-313-3400,37.55692300983503,126.95552199402971,http://place.map.kakao.com/10590842
368,아현,마래푸약국,서울 마포구 아현동 326-18,02-362-2080,37.555640693500145,126.95500215742778,http://place.map.kakao.com/26545702
369,아현,정도약국,서울 서대문구 북아현동 134-21,02-362-1561,37.5579928343056,126.95643582991181,http://place.map.kakao.com/10718518
370,아현,명음약국,서울 서대문구 북아현동 1015,02-313-2208,37.55814319984713,126.95616298477026,http://place.map.kakao.com/269753531
371,아현,대형약국,서울 서대문구 북아현동 135-10,02-312-0940,37.5577955176307,126.956440471862,http://place.map.kakao.com/10325340
372,아현,오늘약국,서울 서대문구 북아현동 126-13,070-8836-5066,37.557555285250785,126.95735507813758,http://place.map.kakao.com/654578529
373,아현,보천약국,서울 마포구 아현동 330-1,02-313-2190,37.557103116918896,126.95527742713301,http://place.map.kakao.com/13511706
374,아현,행복한약국,서울 마포구 아현동 329-1,02-393-1137,37.5570997106724,126.95580256510799,http://place.map.kakao.com/16041662
375,아현,아현파란문약국,서울 서대문구 북아현동 1015,02-313-2288,37.55860081907275,126.95592843796994,http://place.map.kakao.com/1546835344
376,아현,메디팜덕인약국,서울 서대문구 북아현동 220-39,02-363-0888,37.5573958331879,126.952688910294,http://place.map.kakao.com/486500274
377,아현,일층약국,서울 마포구 아현동 330-11,02-6405-1311,37.55707783575925,126.9551371042306,http://place.map.kakao.com/14536512
378,아현,아현이층약국,서울 서대문구 북아현동 1015,02-363-1214,37.558621516634204,126.95586051888901,http://place.map.kakao.com/1917609033
379,신답,복지약국,서울 동대문구 답십리동 465-24,02-2217-3606,37.5705518602285,127.04810385992701,http://place.map.kakao.com/9046122
380,신정네거리,기쁨온누리약국,서울 양천구 신정동 1183-5,02-2696-6950,37.5199877478702,126.85271808782831,http://place.map.kakao.com/1781837026
381,신정네거리,홍삼약국,서울 양천구 신정동 1183-14,02-2698-1324,37.51894762227229,126.85314545630301,http://place.map.kakao.com/16704290
382,신정네거리,분수광장약국,서울 양천구 신월동 502-5,02-2693-7778,37.5221443004772,126.85164144333,http://place.map.kakao.com/1560911788
383,신정네거리,연성약국,서울 양천구 신정동 1031-9,02-2647-0998,37.51981457704771,126.85329873083893,http://place.map.kakao.com/10662821
384,신정네거리,천지인약국,서울 양천구 신정동 972-4,02-2603-2366,37.52155262109989,126.852583790296,http://place.map.kakao.com/9450079
385,신정네거리,새무지개약국,서울 양천구 신정동 1190-2,02-2699-8787,37.52104406707458,126.8522725761153,http://place.map.kakao.com/16653133
386,신정네거리,신정네거리중앙약국,서울 양천구 신정동 1190-6,070-8836-4448,37.5203372371244,126.852638216736,http://place.map.kakao.com/1809467284
387,신정네거리,수정약국,서울 양천구 신정동 1031-1,02-2644-3395,37.5208286177204,126.852906478221,http://place.map.kakao.com/11365901
388,신정네거리,행복한약국,서울 양천구 신정3동 1190-4,02-2606-8933,37.520795379776295,126.852264016745,http://place.map.kakao.com/13512274
389,신정네거리,세왕약국,서울 양천구 신정동 1148-2,02-2603-7284,37.517373521078454,126.85383176012294,http://place.map.kakao.com/16051712
390,신정네거리,수약국,서울 양천구 신정동 1182-7,02-2699-7189,37.51838843550565,126.85341577126928,http://place.map.kakao.com/15275068
391,신정네거리,신정이화약국,서울 양천구 신정동 1029-9,02-2654-0530,37.521078474239054,126.85458697070769,http://place.map.kakao.com/16560028
392,서초,위드팜서초역약국,서울 서초구 서초동 1719-7,02-537-8980,37.492371599447395,127.00793016846904,http://place.map.kakao.com/17058796
393,서초,스타온누리약국,서울 서초구 서초동 1553-3,02-587-8228,37.491975967284205,127.00917284860901,http://place.map.kakao.com/39784565
394,서초,세븐약국,서울 서초구 서초동 1542-1,02-598-7753,37.4915759813777,127.00834507664601,http://place.map.kakao.com/25807215
395,서초,서초우리약국,서울 서초구 서초동 1502-12,02-525-2588,37.4896947276818,127.007603101372,http://place.map.kakao.com/975651411
396,서초,서초늘봄약국,서울 서초구 서초동 1498-5,02-581-7764,37.4904949445076,127.005382383792,http://place.map.kakao.com/1317412587
397,서초,사랑손약국,서울 서초구 서초동 1498-5,02-6411-1188,37.49062199116686,127.00528062497543,http://place.map.kakao.com/124910881
398,당산,래미안온누리약국,서울 영등포구 당산동5가 42,02-2675-5250,37.53307998515328,126.90305073023292,http://place.map.kakao.com/10369215
399,당산,수성약국,서울 영등포구 당산동6가 339-4,02-2633-3669,37.5353691676594,126.89950639199101,http://place.map.kakao.com/59333426
400,당산,당산열린약국,서울 영등포구 당산동6가 224,02-2634-7078,37.5336204827574,126.902925576218,http://place.map.kakao.com/27299225
401,당산,부부정약국,서울 영등포구 당산동6가 338-1,02-2676-8288,37.535138899911296,126.899963797154,http://place.map.kakao.com/24163668
402,당산,햇살온누리약국,서울 영등포구 당산동5가 16-4,02-2069-0823,37.5337343467099,126.901160436878,http://place.map.kakao.com/27323125
403,당산,디오빌약국,서울 영등포구 당산동5가 11-33,02-2633-5545,37.533235946951976,126.90206621256895,http://place.map.kakao.com/13511643
404,당산,쉐르빌약국,서울 영등포구 당산동5가 9-2,02-2672-3277,37.5332328436842,126.90050941382,http://place.map.kakao.com/22539394
405,당산,100세약국,서울 영등포구 당산동6가 217-4,02-2678-8217,37.5332319065988,126.90372710921801,http://place.map.kakao.com/9554686
406,당산,당산스타약국,서울 영등포구 당산동6가 217-2,02-3667-8274,37.53310231834728,126.90391848162311,http://place.map.kakao.com/1372314137
407,당산,당산봄약국,서울 영등포구 당산동6가 217-1,02-3667-4598,37.5331132986119,126.904125512933,http://place.map.kakao.com/1617379016
408,당산,헤르바당산역약국,서울 영등포구 당산동6가 227-1,02-2636-3398,37.5339079123626,126.901848103633,http://place.map.kakao.com/354385631
409,교대,서초당약국,서울 서초구 서초동 1575-9,02-521-9443,37.491420495017785,127.01381570934264,http://place.map.kakao.com/11125808
410,교대,드림약국,서울 서초구 서초동 1657-10,02-522-5776,37.493024220243036,127.01438366183008,http://place.map.kakao.com/463903322
411,교대,건강과행복이열리는약국,서울 서초구 서초동 1692-4,02-591-3399,37.49440807385733,127.01513026306178,http://place.map.kakao.com/11043471
412,교대,제이팜약국,서울 서초구 서초동 1672-9,02-6398-3334,37.4932693290769,127.01409422538799,http://place.map.kakao.com/1037837547
413,교대,새봄약국,서울 서초구 서초동 1574-2,02-523-5220,37.492497290062,127.01301192091199,http://place.map.kakao.com/975094481
414,교대,일이약국,서울 서초구 서초동 1673-5,02-583-9551,37.4938530506518,127.015152767167,http://place.map.kakao.com/8058453
415,교대,법원약국,서울 서초구 서초동 1572-1,02-522-4312,37.4926641496316,127.01133047168301,http://place.map.kakao.com/791092292
416,교대,진약국 서초점,서울 서초구 서초동 1673-1,02-597-6245,37.4937089483615,127.014686847902,http://place.map.kakao.com/13507406
417,교대,세진약국,서울 서초구 서초동 1573-11,02-533-3528,37.49299549726779,127.01345640804199,http://place.map.kakao.com/8420520
418,교대,드림악국,서울 서초구 서초동 1657-10,,37.49303322935071,127.014391579096,http://place.map.kakao.com/1486569180
419,교대,서초온누리약국,서울 서초구 서초동 1673-10,02-584-6075,37.493970129245156,127.01555535749912,http://place.map.kakao.com/1664058099
420,교대,구슬약국,서울 서초구 서초동 1575-3,02-585-6991,37.491871007410204,127.013741161262,http://place.map.kakao.com/1864707262
421,교대,8층약국,서울 서초구 서초동 1573-10,02-582-8885,37.493025233721,127.013428143601,http://place.map.kakao.com/978916683
422,용답,두드림온누리약국,서울 동대문구 답십리동 496-2,02-6949-5444,37.56816186285233,127.05155922435397,http://place.map.kakao.com/233119626
423,용답,하나약국,서울 동대문구 답십리동 496-4,02-2212-0034,37.5678363879644,127.052050253675,http://place.map.kakao.com/68447231
424,역삼,올리브온누리약국,서울 강남구 역삼동 736-18,02-538-5257,37.49898921592882,127.03454049692823,http://place.map.kakao.com/421280850
425,역삼,강남제일약국,서울 강남구 역삼동 646-9,02-555-7790,37.50034528373279,127.034356784643,http://place.map.kakao.com/13508532
426,역삼,역삼생생약국,서울 강남구 역삼동 738-1,02-2051-3300,37.49883542972825,127.03658392371278,http://place.map.kakao.com/1653569267
427,역삼,역삼다인약국,서울 강남구 역삼동 641-6,02-3453-3589,37.502793889736296,127.03546622614901,http://place.map.kakao.com/10662192
428,역삼,세코아약국,서울 강남구 역삼동 642-15,02-552-6861,37.5011997203321,127.03641996373301,http://place.map.kakao.com/35795094
429,역삼,역삼하이츠온누리약국,서울 강남구 역삼동 642-19,02-557-3005,37.50098086310057,127.03613599878445,http://place.map.kakao.com/1127149694
430,역삼,모두약국,서울 강남구 역삼동 804,02-508-0429,37.500714016676504,127.036618767443,http://place.map.kakao.com/2072031756
431,역삼,팜스약국,서울 강남구 역삼동 642-10,02-552-8284,37.5018962838805,127.03613983272801,http://place.map.kakao.com/18545804
432,역삼,성지프라자약국,서울 강남구 역삼동 642-12,02-565-5646,37.5015755106245,127.03618943859699,http://place.map.kakao.com/11130716
433,역삼,역삼오늘약국,서울 강남구 역삼동 736-55,02-554-1472,37.4996330481928,127.035840186815,http://place.map.kakao.com/1462065369
434,역삼,해림온누리약국,서울 강남구 역삼동 737,02-2112-2911,37.5000725229023,127.03654607674801,http://place.map.kakao.com/11495580
435,역삼,좋은아침약국,서울 강남구 역삼동 738-6,,37.49897501541588,127.0368101679498,http://place.map.kakao.com/13508859
436,역삼,다래약국,서울 강남구 역삼동 679-1,02-567-9361,37.50195358827667,127.03729792818085,http://place.map.kakao.com/13512701
437,역삼,참좋은선약국,서울 강남구 역삼동 642-11,02-3453-3501,37.50157822506885,127.03615211954887,http://place.map.kakao.com/18754545
438,역삼,다정온누리약국,서울 강남구 역삼동 641-20,070-8830-6010,37.5022315131947,127.035959045536,http://place.map.kakao.com/2091769201
439,역삼,365역삼역약국,서울 강남구 역삼동 804,,37.50071762069987,127.0366187692028,http://place.map.kakao.com/1490614140
440,왕십리,설약국,서울 성동구 행당동 168-78,02-2294-8274,37.5610135955526,127.039227671612,http://place.map.kakao.com/1272974778
441,왕십리,건강한약국,서울 성동구 도선동 46,02-2231-8803,37.562329662891294,127.03437277821472,http://place.map.kakao.com/887237033
442,왕십리,산호약국,서울 성동구 도선동 253-13,02-2298-5414,37.562754297792274,127.0334482567074,http://place.map.kakao.com/160313986
443,왕십리,부일약국,서울 성동구 행당동 133-2,02-2292-8620,37.558965481610116,127.03689172182665,http://place.map.kakao.com/11051705
444,왕십리,비트플렉스약국,서울 성동구 행당동 168-151,02-2200-1549,37.561569648431345,127.03853528556186,http://place.map.kakao.com/11647303
445,왕십리,이수프라자 약국,서울 성동구 행당1동 287-15,02-2298-2569,37.5613375972985,127.03460660972901,http://place.map.kakao.com/13503943
446,왕십리,희망약국,서울 성동구 도선동 21-1,02-2299-8282,37.5626166792216,127.035725461239,http://place.map.kakao.com/13509339
447,왕십리,엄마손약국,서울 성동구 하왕십리동 966-14,02-6953-2773,37.562393962508395,127.033223991567,http://place.map.kakao.com/1846084135
448,왕십리,비타민약국,서울 성동구 도선동 22-1,02-2299-3226,37.5623644316943,127.035621211678,http://place.map.kakao.com/13508118
449,왕십리,진약국,서울 성동구 행당동 286-5,02-2294-2828,37.561739532581726,127.03429554274557,http://place.map.kakao.com/26406616
450,왕십리,미소약국,서울 성동구 행당동 134-4,02-2299-4041,37.5587563280286,127.037280952257,http://place.map.kakao.com/1762822248
451,왕십리,메디칼약국,서울 성동구 행당동 267-23,02-2299-0204,37.5605445246681,127.035267220321,http://place.map.kakao.com/18316182
452,왕십리,참약사 지안약국,서울 성동구 행당동 168-151,02-2200-1577,37.56144094138514,127.03839600489799,http://place.map.kakao.com/1944666636
453,왕십리,조이온누리약국,서울 성동구 도선동 53,02-2282-7808,37.562523471898295,127.034045765332,http://place.map.kakao.com/286281492
454,왕십리,스타빌약국,서울 성동구 행당1동 287-15,02-2282-6485,37.561362835813206,127.034570403067,http://place.map.kakao.com/16378674
455,왕십리,성산약국,서울 성동구 행당동 267-23,02-2294-8555,37.5605265047342,127.03526721182699,http://place.map.kakao.com/15319474
456,뚝섬,타워약국,서울 성동구 성수동1가 656-591,02-6077-7142,37.5461814667011,127.048649465983,http://place.map.kakao.com/722191342
457,뚝섬,푸른약국,서울 성동구 성수동1가 14-17,02-469-9700,37.5469670028721,127.048975765642,http://place.map.kakao.com/566453020
458,뚝섬,신동아약국,서울 성동구 성수동1가 660-14,02-463-4791,37.5457216089111,127.044982827059,http://place.map.kakao.com/13510928
459,뚝섬,수명약국,서울 성동구 성수동1가 661-2,02-464-8887,37.546125278785404,127.044924226805,http://place.map.kakao.com/12738483
460,뚝섬,메디팜호정약국,서울 성동구 성수동1가 22-5,02-461-0245,37.544234129285186,127.04932034952128,http://place.map.kakao.com/10338337
461,뚝섬,뚝섬스타약국,서울 성동구 성수동1가 14-33,02-499-2600,37.5464263491166,127.049106790349,http://place.map.kakao.com/1464864612
462,뚝섬,코코온누리약국,서울 성동구 성수동1가 14-51,02-465-9995,37.5463216631505,127.049514096059,http://place.map.kakao.com/1918717402
463,성수,성수약국,서울 성동구 성수동2가 315-1,02-469-9886,37.544056006143336,127.0567342214299,http://place.map.kakao.com/2063591478
464,성수,봄약국,서울 성동구 성수동2가 273-52,02-466-8383,37.5434994485,127.05805319024701,http://place.map.kakao.com/245235337
465,성수,건국약국,서울 성동구 성수동2가 314-5,02-549-5011,37.5448634622131,127.05428384528,http://place.map.kakao.com/464795375
466,성수,행복이열리는건강약국,서울 성동구 성수동2가 289-10,02-462-3685,37.545114471330706,127.057167286061,http://place.map.kakao.com/13513667
467,성수,태화약국,서울 성동구 성수동2가 300-79,02-465-4971,37.5453320633764,127.054302290354,http://place.map.kakao.com/9517046
468,성수,성수메디칼약국,서울 성동구 성수동2가 300-1,02-466-8383,37.544685685593706,127.05698138103399,http://place.map.kakao.com/14600779
469,성수,든든약국,서울 성동구 성수동2가 300-1,02-469-0749,37.54469291541729,127.056936123703,http://place.map.kakao.com/1755646697
470,성수,성수햇살약국,서울 성동구 성수동2가 317-3,02-463-5657,37.543937717465205,127.05726822784314,http://place.map.kakao.com/194879887
471,을지로입구,코코약국,서울 중구 을지로2가 196,02-752-3700,37.5659150407167,126.983985992987,http://place.map.kakao.com/26873815
472,을지로입구,신라약국,서울 중구 다동 143,02-777-4825,37.566798567850476,126.98158616463472,http://place.map.kakao.com/10525780
473,을지로입구,명동명약국,서울 중구 소공동 28,02-779-5395,37.5636909795762,126.98125189948799,http://place.map.kakao.com/2020413960
474,을지로입구,홍신약국,서울 중구 다동 155,02-776-5117,37.56714345301058,126.98036814403505,http://place.map.kakao.com/13509681
475,을지로입구,을지로다정약국,서울 중구 을지로2가 6,02-732-2462,37.566491636596886,126.9836825201804,http://place.map.kakao.com/23609769
476,을지로입구,명동하이약국,서울 중구 명동1가 46-2,070-4140-8275,37.564390621177566,126.98447981413008,http://place.map.kakao.com/1236307122
477,을지로입구,휴베이스하이약국,서울 중구 을지로2가 199-33,070-7798-8275,37.56517166896428,126.9836216865416,http://place.map.kakao.com/1348526380
478,을지로입구,명약국,서울 중구 을지로1가 32,02-3789-0624,37.5668153435619,126.979503454314,http://place.map.kakao.com/1275660262
479,을지로입구,새열린약국,서울 중구 을지로2가 199-4,02-778-7188,37.56525723069977,126.98338623635986,http://place.map.kakao.com/13511654
480,을지로입구,샬롬약국,서울 중구 을지로2가 9-10,02-318-0663,37.56640879202889,126.98402663566662,http://place.map.kakao.com/1749127150
481,을지로입구,시안약국,서울 중구 명동1가 60,02-318-7737,37.563896762140004,126.98364233915899,http://place.map.kakao.com/340467366
482,을지로입구,월드탑약국,서울 중구 소공동 1,02-772-3966,37.56482273450451,126.98191602671814,http://place.map.kakao.com/191545580
483,을지로입구,봄약국,서울 중구 삼각동 115,02-720-6774,37.5672087665008,126.98323412679599,http://place.map.kakao.com/2021694129
484,을지로입구,명동스타약국,서울 중구 남대문로2가 9-1,,37.5646922269305,126.982832875734,http://place.map.kakao.com/1245603829
485,을지로입구,세계약국,서울 중구 남대문로2가 9-9,02-776-8000,37.56356497012032,126.98208950477355,http://place.map.kakao.com/9142589
486,상왕십리,대중약국,서울 성동구 하왕십리동 890-80,02-2292-4418,37.564554982422536,127.02809644234878,http://place.map.kakao.com/8905680
487,상왕십리,정성온누리약국,서울 성동구 하왕십리동 1070,02-2281-2531,37.56479074616581,127.02931895577014,http://place.map.kakao.com/839067509
488,상왕십리,왕십리길약국,서울 성동구 하왕십리동 966-11,,37.562718498814704,127.032586907783,http://place.map.kakao.com/570148309
489,상왕십리,한샘약국,서울 성동구 도선동 343-8,02-407-6790,37.564420904819045,127.03101321914696,http://place.map.kakao.com/26302779
490,상왕십리,왕십리약국,서울 성동구 하왕십리동 966-32,02-2292-4247,37.5622032304314,127.032216573071,http://place.map.kakao.com/9898029
491,상왕십리,우인약국,서울 성동구 하왕십리동 966-2,02-2297-1556,37.5628988292642,127.03210821536301,http://place.map.kakao.com/8467883
492,상왕십리,1층이화약국,서울 성동구 하왕십리동 1070,070-7798-1281,37.564786114456936,127.02982490199621,http://place.map.kakao.com/897997107
493,상왕십리,한신약국,서울 성동구 하왕십리동 1070,02-2296-2551,37.56480257012685,127.02886847412901,http://place.map.kakao.com/1338455138
494,상왕십리,행운약국,서울 성동구 하왕십리동 892-4,02-2282-0601,37.56457575444529,127.027889317641,http://place.map.kakao.com/1153136435
495,상왕십리,유연약국,서울 성동구 하왕십리동 1070-1,02-2297-9733,37.564891752391965,127.02893528925198,http://place.map.kakao.com/864412906
496,상왕십리,새봄약국,서울 성동구 하왕십리동 1070,02-6085-4400,37.5650404245073,127.02890365415399,http://place.map.kakao.com/2024592647
497,상왕십리,도담약국,서울 성동구 홍익동 584,02-2294-1185,37.5648601480065,127.029217566886,http://place.map.kakao.com/1105256369
498,구의,금성약국,서울 광진구 구의동 252-90,02-447-1500,37.53750774571884,127.08366937458891,http://place.map.kakao.com/8203901
499,구의,진주약국,서울 광진구 자양동 219-20,02-446-8279,37.535991453201206,127.08354095928301,http://place.map.kakao.com/8084714
500,구의,조은우리약국,서울 광진구 자양동 779-8,02-453-4848,37.5374153103891,127.083148799387,http://place.map.kakao.com/10089571
501,구의,미소온누리약국,서울 광진구 구의동 246-15,02-455-6813,37.536960569079795,127.08404893171301,http://place.map.kakao.com/25481842
502,구의,느티나무약국,서울 광진구 자양동 627-2,02-456-7778,37.53565261966303,127.08362204455605,http://place.map.kakao.com/1057240316
503,구의,라임약국,서울 광진구 구의동 246-14,02-453-0770,37.5370792751087,127.084365872518,http://place.map.kakao.com/805759841
504,구의,굿모닝약국,서울 광진구 자양동 779-11,02-454-2486,37.537879444468345,127.082979594592,http://place.map.kakao.com/13504850
505,구의,자양약국,서울 광진구 자양동 680-4,02-446-6159,37.53561156940717,127.08433253892252,http://place.map.kakao.com/16826551
506,구의,수약국,서울 광진구 자양동 219-2,02-444-5009,37.536215063371046,127.08331152588964,http://place.map.kakao.com/14593510
507,구의,더참사랑약국,서울 광진구 자양동 779-6,02-455-7077,37.53696498961753,127.08289372224534,http://place.map.kakao.com/1058820942
508,봉천,프라자약국,서울 관악구 봉천동 1708,02-3285-7294,37.4833446316924,126.94341460553726,http://place.map.kakao.com/20528624
509,봉천,성보약국,서울 관악구 봉천동 927-26,02-885-4250,37.48163896866264,126.94330282989205,http://place.map.kakao.com/16903043
510,봉천,바른약국,서울 관악구 봉천동 945-14,02-884-2850,37.482644855116064,126.94037485727672,http://place.map.kakao.com/16053105
511,봉천,성신약국,서울 관악구 봉천동 927-8,02-6032-0074,37.482142907856336,126.94201353447399,http://place.map.kakao.com/16586487
512,봉천,봉천프라자약국,서울 관악구 청룡동 927-21,02-875-1711,37.482000929369704,126.942794905885,http://place.map.kakao.com/9052596
513,봉천,한길약국,서울 관악구 봉천동 926-29,02-876-2861,37.482440921991,126.943418678955,http://place.map.kakao.com/8133671
514,봉천,두산약국,서울 관악구 봉천동 1708,02-888-2369,37.4833663278129,126.9435649650017,http://place.map.kakao.com/13500771
515,봉천,봉천미래약국,서울 관악구 봉천동 926-33,02-877-4985,37.4825523289786,126.94275830524599,http://place.map.kakao.com/1739790709
516,봉천,태림약국,서울 관악구 봉천동 945-20,02-882-9961,37.4823888635884,126.940167024675,http://place.map.kakao.com/16037915
517,봉천,건강온누리약국,서울 관악구 봉천동 931-8,070-7740-3349,37.48301362542385,126.94088787478351,http://place.map.kakao.com/1773792368
518,봉천,그린약국,서울 관악구 봉천동 927-1,02-888-4959,37.48199486646321,126.94330143034868,http://place.map.kakao.com/921977617
519,봉천,해솔약국,서울 관악구 봉천동 926-33,02-2625-0026,37.4825532305347,126.94275943519176,http://place.map.kakao.com/682506299
520,봉천,하늘약국,서울 관악구 봉천동 928-1,02-877-6431,37.48142620831006,126.94304860203538,http://place.map.kakao.com/13500756
521,잠실나루,나루역사거리현대약국,서울 송파구 신천동 17-4,02-487-1218,37.52121205769178,127.10427550262274,http://place.map.kakao.com/16647714
522,잠실나루,위드팜가까운지하철약국,서울 송파구 신천동 17-4,02-413-9333,37.52092806230575,127.10447872547009,http://place.map.kakao.com/514250664
523,잠실나루,삼원약국,서울 송파구 신천동 17-4,02-421-0793,37.52078388206103,127.10450114861727,http://place.map.kakao.com/10432484
524,잠실나루,파크리오오렌지약국,서울 송파구 신천동 17-4,02-417-1369,37.520740591945575,127.10454859900696,http://place.map.kakao.com/13500306
525,잠실나루,오메디약국,서울 송파구 신천동 17-4,02-421-0855,37.52077750195871,127.10458371799362,http://place.map.kakao.com/1842276898
526,잠실나루,초록약국,서울 송파구 신천동 17-4,02-424-7786,37.520738823981354,127.10451013544588,http://place.map.kakao.com/13513341
527,잠실나루,위드팜잠실나루역약국,서울 송파구 신천동 15,02-416-0223,37.5207025014294,127.1038087357559,http://place.map.kakao.com/30429391
528,강남,강남역2번출구약국,서울 강남구 역삼동 825-13,02-565-5490,37.4974510268582,127.02842071727801,http://place.map.kakao.com/1582810253
529,강남,이즈타워약국,서울 강남구 역삼동 821-1,02-501-9478,37.498611610575225,127.02805475354877,http://place.map.kakao.com/14970034
530,강남,큰길약국,서울 강남구 역삼동 826-23,02-553-1517,37.495829044638775,127.02912008840605,http://place.map.kakao.com/16586878
531,강남,해피약국,서울 서초구 서초동 1328-7,02-582-2590,37.495328250488456,127.0284402676968,http://place.map.kakao.com/93837913
532,강남,에이타워약국,서울 강남구 역삼동 822-1,02-552-3800,37.4986367249985,127.02852973070401,http://place.map.kakao.com/1208494795
533,강남,이로운약국,서울 강남구 역삼동 826-37,,37.4955116537692,127.03006420696,http://place.map.kakao.com/1827452624
534,강남,나인약국,서울 서초구 서초동 1317-20,02-537-0999,37.49793440526727,127.02653348673573,http://place.map.kakao.com/993740656
535,강남,일번지약국,서울 강남구 역삼동 824-11,02-567-2501,37.49713609863997,127.03033852459262,http://place.map.kakao.com/16586085
536,강남,강남미약국,서울 강남구 역삼동 825-8,02-501-2105,37.49649679814096,127.02868044962436,http://place.map.kakao.com/1509540224
537,강남,씨티약국,서울 강남구 역삼동 826-1,02-553-1608,37.4962435651505,127.028886165576,http://place.map.kakao.com/434473165
538,강남,뉴욕약국,서울 강남구 역삼동 822-2,070-4147-3039,37.4986835235844,127.028751400268,http://place.map.kakao.com/20913424
539,강남,초이스약국,서울 서초구 서초동 1319-13,02-2055-2272,37.496370830977625,127.02795553208179,http://place.map.kakao.com/318043885
540,강남,강남썬약국,서울 강남구 역삼동 825-20,,37.4977301325869,127.0292655769268,http://place.map.kakao.com/2125056727
541,강남,웰빙약국,서울 서초구 서초동 1317-3,02-533-6348,37.49902294971166,127.02595372971123,http://place.map.kakao.com/1611856503
542,강남,유니팜서울약국,서울 강남구 역삼동 822-4,02-556-7886,37.498751941463745,127.028991172499,http://place.map.kakao.com/19228769
543,강남,미진약국,서울 강남구 역삼동 825,02-566-1954,37.497849218691655,127.02864025575128,http://place.map.kakao.com/10398128
544,강남,다이아약국,서울 강남구 역삼동 826-3,02-552-9631,37.496420086827996,127.029193822642,http://place.map.kakao.com/1240938960
545,강남,강남역스타약국,서울 강남구 역삼동 825-20,02-6326-8908,37.49774634593719,127.02928480791128,http://place.map.kakao.com/1708021893
546,강남,늘편한약국,서울 서초구 서초동 1320,02-2055-2370,37.497224486705605,127.026199520446,http://place.map.kakao.com/1549328047
547,강남,코코온누리약국,서울 강남구 역삼동 820-10,02-539-1500,37.498939678107035,127.02762514181292,http://place.map.kakao.com/304153506
548,강남,플러스약국,서울 강남구 역삼동 822-5,070-7783-4101,37.498791511531095,127.02929200133177,http://place.map.kakao.com/1166717212
549,강남,서초삼성약국,서울 서초구 서초동 1327,02-3474-0617,37.49575294093989,127.02709473850551,http://place.map.kakao.com/16588296
550,강남,아름약국,서울 강남구 역삼동 826-21,02-561-3331,37.495551491811,127.029292997489,http://place.map.kakao.com/396275111
551,강남,퍼스트케어약국,서울 서초구 서초동 1319-12,02-597-8979,37.4966655163427,127.02771703344601,http://place.map.kakao.com/1268012192
552,강남,모건약국,서울 강남구 역삼동 824-20,02-554-5679,37.49863434036462,127.0308480247336,http://place.map.kakao.com/1355287063
553,강남,캠브리지5층약국,서울 강남구 역삼동 825-18,02-552-9319,37.4980670794785,127.029384449459,http://place.map.kakao.com/26826322
554,강남,휴베이스봄약국,서울 서초구 서초동 1316-29,02-595-4008,37.498273471722605,127.02521840472471,http://place.map.kakao.com/1527718716
555,강남,강남엘약국,서울 서초구 서초동 1317-11,02-533-7737,37.49857686905712,127.02632676398152,http://place.map.kakao.com/1364692966
556,강남,아라약국,서울 서초구 서초동 1317-20,02-530-8575,37.49800649009079,127.02651428751676,http://place.map.kakao.com/11889079
557,강남,다사랑약국,서울 서초구 서초동 1320-10,02-581-5773,37.4967413988923,127.02685987943501,http://place.map.kakao.com/15238629
558,강남,엠플러스약국,서울 강남구 역삼동 825-9,02-558-9799,37.496642772172926,127.02863527162724,http://place.map.kakao.com/10653578
559,강남,아라타워아이약국,서울 서초구 서초동 1317-20,070-4269-3370,37.497984862638276,127.02652898112541,http://place.map.kakao.com/11886668
560,강남,화인약국,서울 강남구 역삼동 826-25,02-501-7712,37.49601556025544,127.02909075908859,http://place.map.kakao.com/13632421
561,강남,신분당약국,서울 강남구 역삼동 858,02-558-0803,37.4956705953639,127.02859645218099,http://place.map.kakao.com/1815518492
562,강남,지티타워약국,서울 서초구 서초동 1317-28,02-590-2460,37.4981075338398,127.025923897246,http://place.map.kakao.com/725417703
563,강남,강남본약국,서울 강남구 역삼동 825-24,02-557-9480,37.4970037788543,127.02983524237301,http://place.map.kakao.com/1967298906
564,강남,현대영약국,서울 서초구 서초동 1319-13,02-525-5143,37.49637084060417,127.02791482179316,http://place.map.kakao.com/11557445
565,강남,제이약국,서울 강남구 역삼동 821-1,02-566-1259,37.49862242050112,127.02806380459614,http://place.map.kakao.com/8511914
566,강남,365강남역약국,서울 강남구 역삼동 858,02-554-5628,37.49816465103971,127.028307900881,http://place.map.kakao.com/1902696182
567,잠실새내,녹십자약국,서울 송파구 잠실동 184-7,02-424-7434,37.5113643050534,127.08487983278,http://place.map.kakao.com/8251352
568,잠실새내,코끼리약국,서울 송파구 잠실동 208-7,02-420-2290,37.509327162873,127.08608547309099,http://place.map.kakao.com/8553790
569,잠실새내,바른약국,서울 송파구 잠실동 22-6,02-3431-9930,37.511997050895,127.08702507106001,http://place.map.kakao.com/17522284
570,잠실새내,숲약국,서울 송파구 잠실동 208-13,02-418-6700,37.51025726099945,127.08572573610205,http://place.map.kakao.com/17040616
571,잠실새내,헬로팜 약국,서울 송파구 잠실동 183,02-415-7450,37.5110484320407,127.08307882347601,http://place.map.kakao.com/9590013
572,잠실새내,시티약국,서울 송파구 잠실동 184-1,02-3431-4115,37.51139864488653,127.08347282325909,http://place.map.kakao.com/13513620
573,잠실새내,지혜온누리약국,서울 송파구 잠실동 184-9,02-412-5792,37.51109359302024,127.08544958209845,http://place.map.kakao.com/16487054
574,잠실새내,W약국,서울 송파구 잠실동 181-3,02-415-1559,37.51148641639749,127.08164850640452,http://place.map.kakao.com/27103197
575,잠실새내,엘스약국,서울 송파구 잠실동 19-9,02-424-2111,37.5120879044719,127.083484901641,http://place.map.kakao.com/715232712
576,잠실새내,새내수약국,서울 송파구 잠실동 35-2,02-422-8326,37.5107038072455,127.08620920828899,http://place.map.kakao.com/1993236943
577,잠실새내,애플약국,서울 송파구 잠실동 19-9,02-412-6728,37.5120856031269,127.084188429731,http://place.map.kakao.com/1906798994
578,잠실새내,더하늘약국,서울 송파구 잠실동 19-9,02-3431-8808,37.51207025139571,127.084237048841,http://place.map.kakao.com/760028283
579,잠실새내,비타민약국,서울 송파구 잠실동 35-2,02-414-5145,37.5107001999295,127.08621372837,http://place.map.kakao.com/26890859
580,잠실새내,크리스마스약국,서울 송파구 잠실동 19-9,,37.5121072272061,127.084188454019,http://place.map.kakao.com/13507259
581,잠실새내,동아약국,서울 송파구 잠실동 184,02-419-3141,37.51138893572464,127.08318665231556,http://place.map.kakao.com/16933543
582,잠실새내,밝은약국,서울 송파구 잠실동 19-9,02-422-0317,37.5120856031269,127.084188429731,http://place.map.kakao.com/26324118
583,잠실새내,더함약국,서울 송파구 잠실동 22-6,02-423-2270,37.51193398400044,127.08702047353201,http://place.map.kakao.com/26101918
584,잠실새내,유한약국,서울 송파구 잠실동 181-6,02-421-5777,37.511463451,127.08228301101101,http://place.map.kakao.com/14876412
585,잠실새내,차돌약국,서울 송파구 잠실동 35-2,02-422-1239,37.51070020323159,127.08620920414428,http://place.map.kakao.com/2056264721
586,잠실새내,단비온누리약국,서울 송파구 잠실동 22-6,02-422-6883,37.511993446882,127.087025066875,http://place.map.kakao.com/17040619
587,잠실새내,우리온누리약국,서울 송파구 잠실동 35-2,02-412-5632,37.5107578971638,127.086168552405,http://place.map.kakao.com/16501098
588,잠실새내,신한약국,서울 송파구 잠실동 181-7,02-423-8283,37.5114380493022,127.08253181818701,http://place.map.kakao.com/16647123
589,잠실새내,미소진약국,서울 송파구 잠실동 19-9,02-412-7380,37.5120856128001,127.084174856803,http://place.map.kakao.com/13512452
590,잠실새내,리센츠약국,서울 송파구 잠실동 22-6,02-421-3610,37.511989836202105,127.087034111297,http://place.map.kakao.com/17064523
591,잠실새내,메디팜우리약국,서울 송파구 잠실동 19-9,02-414-5747,37.512064091804206,127.084030054664,http://place.map.kakao.com/12205842
592,잠실새내,잠실새내약국,서울 송파구 잠실동 208-4,070-7867-0079,37.509885353030704,127.08544028743201,http://place.map.kakao.com/765986947
593,잠실새내,셀럽약국,서울 송파구 잠실동 22-6,02-6349-0529,37.5119429773653,127.087043105494,http://place.map.kakao.com/650153923
594,잠실새내,트리지움자연약국,서울 송파구 잠실동 35-2,070-7562-8231,37.510739850685894,127.086204725512,http://place.map.kakao.com/19142531
595,잠실새내,엘스3층 온누리약국,서울 송파구 잠실동 19-9,02-419-2480,37.5121072272061,127.084188454019,http://place.map.kakao.com/25131968
596,잠실새내,새잠실365약국,서울 송파구 잠실동 22-6,02-424-3209,37.5119790174954,127.08704314734699,http://place.map.kakao.com/2022867879
597,잠실새내,잠실팜약국,서울 송파구 잠실동 209,070-8080-4509,37.5091152520155,127.086325008809,http://place.map.kakao.com/2065258870
598,삼성,허지웅약국,서울 강남구 대치동 946,02-553-0777,37.50812844811193,127.06230216889006,http://place.map.kakao.com/1038692105
599,삼성,삼성온누리약국,서울 강남구 대치동 946-1,,37.508108369106935,127.06278735907391,http://place.map.kakao.com/59326591
600,삼성,동호약국,서울 강남구 대치동 997-11,02-567-3935,37.5085864632956,127.06669432176099,http://place.map.kakao.com/16905833
601,삼성,메디칼희민약국,서울 강남구 대치동 1001-6,02-558-6731,37.507828800712964,127.06492926566685,http://place.map.kakao.com/16648496
602,선릉,약사랑약국,서울 강남구 역삼동 705-30,02-2039-9112,37.5048110745737,127.04859546503599,http://place.map.kakao.com/608192874
603,선릉,누네조은약국,서울 강남구 대치동 889-11,02-566-0010,37.50451123467312,127.0502826691972,http://place.map.kakao.com/808726251
604,선릉,테헤란건강약국,서울 강남구 대치동 889-72,02-556-4166,37.503559423813705,127.051096314706,http://place.map.kakao.com/11495657
605,선릉,강남우리온누리약국,서울 강남구 삼성동 141-33,02-565-7940,37.50503413772117,127.04952526863487,http://place.map.kakao.com/16414334
606,선릉,선릉수정약국,서울 강남구 삼성동 141-19,02-558-8025,37.5051713233992,127.048966658049,http://place.map.kakao.com/9175166
607,선릉,소담약국,서울 강남구 역삼동 705-27,02-552-9593,37.504796716101495,127.048455215641,http://place.map.kakao.com/98028299
608,선릉,선릉타워약국,서울 강남구 역삼동 707-27,02-508-5118,37.503535878027726,127.0470463687282,http://place.map.kakao.com/1837535763
609,선릉,상지온누리약국,서울 강남구 역삼동 696-18,02-554-0624,37.5055574517145,127.047749975835,http://place.map.kakao.com/9072387
610,선릉,다올약국,서울 강남구 역삼동 708-37,,37.5030592223904,127.049313608851,http://place.map.kakao.com/1869300903
611,선릉,선릉코코약국,서울 강남구 역삼동 705-18,02-563-1222,37.50467434985803,127.04803780987491,http://place.map.kakao.com/1341288784
612,선릉,한사랑약국,서울 강남구 역삼동 705-25,02-567-7850,37.50526528829681,127.04833450410193,http://place.map.kakao.com/16328753
613,선릉,골드로즈약국,서울 강남구 대치4동 890-59,02-567-3609,37.5041536505474,127.052096487206,http://place.map.kakao.com/16706229
614,선릉,다온약국,서울 강남구 역삼동 708,02-568-5268,37.503716738019335,127.04765041067492,http://place.map.kakao.com/13508744
615,선릉,진선약국,서울 강남구 대치동 897,02-567-0429,37.502826458643,127.05003725654959,http://place.map.kakao.com/16677400
616,선릉,타임약국,서울 강남구 역삼동 708-26,,37.50348275098318,127.04917930452532,http://place.map.kakao.com/1353650984
617,선릉,선릉역약국,서울 강남구 역삼동 802-31,02-556-3339,37.5045045890316,127.048943603309,http://place.map.kakao.com/1111484949
618,강변,온누리강변프라자약국,서울 광진구 구의동 631-1,010-6800-3027,37.53676483992969,127.09613713260784,http://place.map.kakao.com/9690281
619,강변,초원온누리약국,서울 광진구 구의동 546-11,02-3436-8743,37.535348857894455,127.0934051757486,http://place.map.kakao.com/8589826
620,강변,동서울약국,서울 광진구 구의3동 546-1,02-452-0015,37.5345778444072,127.094233543345,http://place.map.kakao.com/8918441
621,강변,강변그랜드약국,서울 광진구 구의동 631-1,02-447-4842,37.536756701456106,127.096173328581,http://place.map.kakao.com/13510086
622,강변,삼층약국,서울 광진구 구의동 546-11,070-8835-3737,37.5353497579991,127.09340630830098,http://place.map.kakao.com/200722010
623,강변,현대온누리약국,서울 광진구 구의3동 546-4,02-3424-1120,37.535747942588294,127.09572851042299,http://place.map.kakao.com/9296728
624,을지로3가,을지수온누리약국,서울 중구 저동2가 70-1,02-2275-2113,37.56460377429934,126.98911139048202,http://place.map.kakao.com/14516537
625,을지로3가,아세아약국,서울 중구 초동 18-13,02-2274-1600,37.564924823578146,126.9930004729427,http://place.map.kakao.com/9203569
626,을지로3가,오렌지약국,서울 중구 을지로2가 203,02-6031-0024,37.5657894521171,126.988758068214,http://place.map.kakao.com/1666004940
627,을지로3가,하얀약국,서울 중구 저동2가 88-12,02-2274-9119,37.5645316640865,126.988785422131,http://place.map.kakao.com/8584992
628,을지로3가,신우리약국,서울 중구 저동2가 84-4,02-2267-1570,37.56488850976171,126.989337724318,http://place.map.kakao.com/13511711
629,을지로3가,사랑약국,서울 중구 수표동 99,02-6020-2333,37.56761842948641,126.98830163051281,http://place.map.kakao.com/373416351
630,을지로3가,한마음약국,서울 중구 저동2가 88-10,02-2271-2861,37.5645244655358,126.988885027848,http://place.map.kakao.com/13506883
631,을지로3가,사랑제일약국,서울 중구 초동 17-1,02-2272-4590,37.565355497520144,126.99296308049227,http://place.map.kakao.com/911047744
632,을지로3가,한가람약국,서울 중구 저동2가 88-5,02-2275-3210,37.5644667785063,126.988640552495,http://place.map.kakao.com/161868226
633,을지로3가,조동약국,서울 중구 장교동 1,02-755-2661,37.567155187084595,126.9870509416448,http://place.map.kakao.com/9445082
634,동대문역사문화공원,광희약국,서울 중구 광희동2가 323-2,02-2273-5555,37.564020195626,127.007452187723,http://place.map.kakao.com/14090910
635,동대문역사문화공원,왕란약국,서울 중구 광희동1가 154-1,02-2267-1492,37.5652348004237,127.006397395029,http://place.map.kakao.com/13502679
636,동대문역사문화공원,스마트약국,서울 중구 을지로6가 18-35,02-6388-1967,37.5674871873732,127.008077350583,http://place.map.kakao.com/416181576
637,동대문역사문화공원,힘찬약국,서울 중구 을지로6가 18-95,02-2279-7588,37.5677466669933,127.008181402018,http://place.map.kakao.com/209486206
638,동대문역사문화공원,연세드림약국,서울 중구 을지로6가 18-130,02-2261-2251,37.5664493321351,127.006596713297,http://place.map.kakao.com/1579867259
639,동대문역사문화공원,동대문허브약국,서울 중구 을지로6가 18-17,02-3393-0077,37.56811425280471,127.0084713282678,http://place.map.kakao.com/1805077592
640,동대문역사문화공원,동문약국,서울 중구 을지로6가 18-60,02-2271-1702,37.566979136099135,127.00625945142444,http://place.map.kakao.com/10296086
641,동대문역사문화공원,중앙약국,서울 중구 을지로6가 18-133,02-2275-4982,37.566619823219796,127.00617803756164,http://place.map.kakao.com/18691780
642,동대문역사문화공원,국민약국,서울 중구 을지로6가 18-51,02-2273-4466,37.5670800419472,127.00636585936701,http://place.map.kakao.com/8830543
643,을지로4가,을지약국,서울 중구 을지로4가 323,02-3706-7204,37.566139543593394,126.997328727022,http://place.map.kakao.com/1199432861
644,을지로4가,참조은약국,서울 중구 을지로4가 310-68,02-2266-9549,37.5655520415203,126.995576587792,http://place.map.kakao.com/13503722
645,을지로4가,원진온누리약국,서울 중구 을지로4가 310,02-6466-1983,37.566132307613394,126.99629191125901,http://place.map.kakao.com/197875579
646,을지로4가,혜성약국,서울 중구 을지로4가 72-1,02-2275-7418,37.5669792766248,126.99755055101002,http://place.map.kakao.com/1737334314
647,을지로4가,오성약국,서울 중구 인현동2가 135-55,02-2278-2828,37.56409963151232,126.99546801468122,http://place.map.kakao.com/10616296
648,을지로4가,중부사약국,서울 중구 오장동 11-4,02-2275-7357,37.564636707524706,126.998940567255,http://place.map.kakao.com/9466209
649,을지로4가,지하근화사약국,서울 중구 을지로3가 282-8,02-2272-4986,37.56643944259138,126.99379832062846,http://place.map.kakao.com/11255870
650,충정로,청솔약국,서울 서대문구 충정로3가 464,02-313-1150,37.55989471086488,126.96408569590824,http://place.map.kakao.com/13507181
651,충정로,인원약국,서울 중구 중림동 397-20,02-392-3881,37.55898730743192,126.96376017676424,http://place.map.kakao.com/13510660
652,충정로,충청로조은약국,서울 중구 중림동 398-9,02-363-9066,37.558848498183295,126.96357915839714,http://place.map.kakao.com/2102246293
653,충정로,건강백세약국,서울 중구 중림동 398-6,02-392-7855,37.55897364420999,126.96328030575191,http://place.map.kakao.com/9744443
654,충정로,인우약국,서울 중구 중림동 1154,02-392-7291,37.558903246329244,126.96588344764116,http://place.map.kakao.com/20525736
655,영등포구청,이도온누리약국,서울 영등포구 당산동3가 395-4,02-2633-7167,37.526791592308,126.895304938216,http://place.map.kakao.com/9316117
656,영등포구청,이화메디약국,서울 영등포구 당산동3가 270,02-2633-3721,37.52540728023423,126.89692912709664,http://place.map.kakao.com/966931996
657,영등포구청,영등포21세기온누리약국,서울 영등포구 당산동4가 94-1,02-2636-7588,37.5279180995212,126.897651978055,http://place.map.kakao.com/10061699
658,영등포구청,새보람약국,서울 영등포구 당산동3가 386-3,02-2632-9359,37.526721977776106,126.8960562180402,http://place.map.kakao.com/2087772513
659,영등포구청,구민약국,서울 영등포구 당산동3가 206,02-2633-4671,37.52732488364095,126.89724099238511,http://place.map.kakao.com/8661553
660,영등포구청,동신당약국,서울 영등포구 당산동1가 284-1,02-2677-8277,37.52363348528265,126.8982890702339,http://place.map.kakao.com/9782570
661,영등포구청,에버케어제약,서울 영등포구 당산동3가 30,,37.5239647746041,126.897965080872,http://place.map.kakao.com/15205023
662,신당,신중앙약국,서울 중구 신당동 140-4,02-2237-9602,37.56548196415612,127.01994382029423,http://place.map.kakao.com/8410510
663,신당,상산약국,서울 중구 황학동 719,02-2252-3354,37.5658315229687,127.020106905741,http://place.map.kakao.com/13510306
664,신당,장수약국,서울 중구 신당5동 130-33,02-2252-2929,37.5652333446087,127.019613244585,http://place.map.kakao.com/11168535
665,신당,스타온누리약국,서울 중구 신당동 150-12,02-2235-7193,37.5652743978937,127.02184872273399,http://place.map.kakao.com/1631521681
666,신당,신당조은약국,서울 중구 황학동 2484,02-2231-7320,37.56558059095239,127.02262189088042,http://place.map.kakao.com/13502935
667,신당,솔약국,서울 중구 황학동 2523,02-6369-5203,37.56591414903024,127.02161008039249,http://place.map.kakao.com/27917463
668,신당,주원약국,서울 중구 신당동 140-10,02-2234-3531,37.56544225391266,127.02033317806541,http://place.map.kakao.com/17020839
669,신당,샘물온누리약국,서울 중구 신당동 155-18,02-965-3336,37.563563665700975,127.02039718329394,http://place.map.kakao.com/923320064
670,신당,시티약국,서울 중구 흥인동 91,02-2232-0546,37.56570136535023,127.01701002331636,http://place.map.kakao.com/1150510953
671,신당,소망약국,서울 중구 신당동 145-3,02-2253-2355,37.563795241452205,127.020282928587,http://place.map.kakao.com/9152801
672,신당,기풍약국,서울 중구 신당동 52-13,02-2252-0450,37.56318636628358,127.0190931885007,http://place.map.kakao.com/10214677
673,신당,라임약국,서울 중구 황학동 2523,02-2231-6191,37.565912290072944,127.021919086336,http://place.map.kakao.com/493902277
674,신당,타워약국,서울 중구 황학동 688,02-2235-1876,37.5659321772285,127.021564809914,http://place.map.kakao.com/13507075
675,합정,합정365약국,서울 마포구 합정동 364-28,02-6407-3031,37.54844217750285,126.91493555624012,http://place.map.kakao.com/372567582
676,합정,참마음약국,서울 마포구 서교동 392-23,02-3141-0258,37.55145855918133,126.9159698722723,http://place.map.kakao.com/1251292082
677,합정,이화메세나약국,서울 마포구 서교동 490,02-332-5452,37.55012613137069,126.91367750791215,http://place.map.kakao.com/24997943
678,합정,피크약국,서울 마포구 서교동 393-4,02-3143-6191,37.5508281183703,126.915070907639,http://place.map.kakao.com/1581407473
679,합정,셀약국,서울 마포구 서교동 494,02-337-7959,37.55073548922222,126.91657838655874,http://place.map.kakao.com/518179441
680,합정,파란바다약국,서울 마포구 합정동 472,02-337-6209,37.550161300808426,126.91249488963159,http://place.map.kakao.com/225758062
681,합정,하늘약국,서울 마포구 합정동 373-17,02-322-2365,37.5483979841119,126.91363310416205,http://place.map.kakao.com/20032229
682,합정,평화약국,서울 마포구 서교동 394-44,02-336-6307,37.550288982390704,126.915855756483,http://place.map.kakao.com/445470135
683,합정,온누리미소약국,서울 마포구 합정동 426-8,02-323-4052,37.5520152850699,126.912131715734,http://place.map.kakao.com/24769211
684,합정,합정녹십자약국,서울 마포구 합정동 364-58,02-3142-6002,37.5482626089105,126.91581616426599,http://place.map.kakao.com/16619921
685,합정,합정동산약국,서울 마포구 서교동 490,02-338-0026,37.55128814267061,126.91330045319526,http://place.map.kakao.com/27354357
686,합정,delight이화약국,서울 마포구 합정동 473,02-332-3984,37.551013547768996,126.912363751656,http://place.map.kakao.com/1548466211
687,합정,사랑의약국,서울 마포구 합정동 373-4,02-334-8443,37.54855719054541,126.91449974834259,http://place.map.kakao.com/8405389
688,합정,합정스타약국,서울 마포구 합정동 414,02-323-0202,37.54925177793624,126.91315230385872,http://place.map.kakao.com/194103432
689,건대입구,정문대학약국,서울 광진구 화양동 4-20,02-2218-4545,37.54065938303928,127.07141185644512,http://place.map.kakao.com/13507119
690,건대입구,더샾스타시티약국,서울 광진구 자양동 227-7,02-2024-1311,37.5385572812035,127.07299844685193,http://place.map.kakao.com/10315908
691,건대입구,연진약국,서울 광진구 화양동 9-90,02-462-3355,37.541428789909,127.068448004095,http://place.map.kakao.com/10661549
692,건대입구,연약국,서울 광진구 화양동 6-2,02-466-1288,37.540508772048604,127.070148950395,http://place.map.kakao.com/18166941
693,건대입구,스타약국,서울 광진구 화양동 6-1,02-499-2080,37.540335567248,127.07050634368,http://place.map.kakao.com/1401798857
694,건대입구,햇빛약국,서울 광진구 화양동 4-20,02-457-6664,37.5405729035339,127.07138461776199,http://place.map.kakao.com/8611983
695,건대입구,건대역약국,서울 광진구 자양동 8-24,02-497-4337,37.54076622487065,127.06745619437768,http://place.map.kakao.com/12444990
696,건대입구,건대애플약국,서울 광진구 자양동 1-1,02-463-1020,37.5396834217088,127.070207014909,http://place.map.kakao.com/1595184176
697,건대입구,온누리메디칼약국,서울 광진구 자양동 8-1,02-461-0120,37.54065710040286,127.06763713763335,http://place.map.kakao.com/16333239
698,건대입구,건대온누리약국,서울 광진구 화양동 4-20,02-457-7999,37.5405134293764,127.071398139153,http://place.map.kakao.com/1124089159
699,건대입구,세계로온누리약국,서울 광진구 화양동 48-14,02-466-0253,37.5411515801129,127.067931778805,http://place.map.kakao.com/8437048
700,건대입구,나라약국,서울 광진구 화양동 4-20,02-453-7398,37.5406593830393,127.07141185644501,http://place.map.kakao.com/1595424783
701,건대입구,건대지하철약국,서울 광진구 화양동 4-20,02-461-1401,37.54066118503769,127.07141185816376,http://place.map.kakao.com/8788322
702,건대입구,더클래식약국,서울 광진구 자양동 227-342,02-455-4565,37.5383639311794,127.070920870053,http://place.map.kakao.com/15486405
703,건대입구,초록약국,서울 광진구 화양동 5-106,02-463-8797,37.541063363302115,127.07086006197616,http://place.map.kakao.com/1975346270
704,건대입구,원약국,서울 광진구 화양동 7-3,02-468-8797,37.540803181730816,127.06898829491827,http://place.map.kakao.com/1897180447
705,건대입구,건대바른약국,서울 광진구 화양동 4-20,02-456-2393,37.5406710939761,127.07141526214399,http://place.map.kakao.com/106560433
706,대림,대림미소약국,서울 영등포구 대림동 1050-40,02-842-8878,37.49323598853198,126.89689306677583,http://place.map.kakao.com/1872407789
707,대림,늘푸른약국,서울 구로구 구로동 127-45,02-851-0601,37.492562386986094,126.89323138476827,http://place.map.kakao.com/10275355
708,대림,온누리대광약국,서울 영등포구 대림동 1056-1,02-849-1330,37.492628987546524,126.89721165166505,http://place.map.kakao.com/16874992
709,대림,엄마약국,서울 영등포구 대림동 714-2,02-831-7070,37.495088909795754,126.89741182828108,http://place.map.kakao.com/16903485
710,대림,동방약국,서울 영등포구 대림동 1052-16,02-832-8583,37.4933816663777,126.895542696173,http://place.map.kakao.com/1025352238
711,잠실,온누리캐슬플라자약국,서울 송파구 신천동 7-18,02-2146-2314,37.5143640019451,127.10061926747368,http://place.map.kakao.com/10078504
712,잠실,시그니처약국,서울 송파구 신천동 29,02-3213-2887,37.51272890512515,127.10245395893595,http://place.map.kakao.com/80990086
713,잠실,에벤에셀약국,서울 송파구 신천동 7-25,02-416-0216,37.515093684164796,127.09971082383899,http://place.map.kakao.com/1986590
714,잠실,루터약국,서울 송파구 신천동 7-20,02-6424-7050,37.51524675967715,127.1029720631292,http://place.map.kakao.com/1564783928
715,잠실,잠실미소약국,서울 송파구 신천동 7-12,02-418-4837,37.516251348592895,127.103006246532,http://place.map.kakao.com/834721397
716,잠실,스타약국,서울 송파구 신천동 7-17,02-3434-1586,37.5153245163008,127.09950300358999,http://place.map.kakao.com/21419260
717,잠실,알파약국,서울 송파구 신천동 7-19,02-422-2261,37.514615549588896,127.102519880494,http://place.map.kakao.com/1918790430
718,잠실,삼성수약국,서울 송파구 신천동 7-29,02-2152-7577,37.516624063907706,127.10126931770701,http://place.map.kakao.com/26497033
719,잠실,쉼표약국,서울 송파구 신천동 8,070-8728-0008,37.5138592789693,127.101858280779,http://place.map.kakao.com/1715051196
720,잠실,잠실착한약국,서울 송파구 신천동 8,,37.51363921055301,127.1010696039382,http://place.map.kakao.com/1771240664
721,잠실,굿데이약국,서울 송파구 신천동 7-30,02-425-0730,37.5157861566772,127.09911450643699,http://place.map.kakao.com/51293915
722,잠실,지하철약국,서울 송파구 신천동 8,02-423-1919,37.51331909866404,127.10031246857731,http://place.map.kakao.com/10779777
723,잠실,잠실 선약국,서울 송파구 신천동 7-11,02-418-9531,37.51592626764371,127.099644063413,http://place.map.kakao.com/1353952052
724,경찰병원,팜플러스,서울 송파구 가락동 77-4,02-431-9655,37.4957477123319,127.122292681267,http://place.map.kakao.com/13013621
725,경찰병원,희망약국,서울 송파구 가락동 121,02-430-3743,37.49352738997871,127.12425212616036,http://place.map.kakao.com/13502495
726,경찰병원,메디슨약국,서울 송파구 가락동 57,02-443-7789,37.496583844651106,127.122294044712,http://place.map.kakao.com/10336126
727,경찰병원,독수리약국,서울 송파구 가락동 78,02-2142-1111,37.49522747388111,127.12263786497722,http://place.map.kakao.com/12505778
728,경찰병원,서울신약국,서울 송파구 가락동 122-5,02-400-1640,37.493922362736726,127.12393615540056,http://place.map.kakao.com/373590607
729,경찰병원,성원큰사랑약국,서울 송파구 가락동 80,02-406-3555,37.495240138751825,127.12083987589395,http://place.map.kakao.com/17012528
730,경찰병원,이안약국,서울 송파구 가락동 111,02-3012-3366,37.4934486845001,127.121963263167,http://place.map.kakao.com/347830598
731,경찰병원,지하철더조은약국,서울 송파구 가락동 10-15,,37.49560170276826,127.1240655833743,http://place.map.kakao.com/605729786
732,경찰병원,지하철정문약국,서울 송파구 가락동 10-15,02-400-9208,37.49560350240245,127.12406784800983,http://place.map.kakao.com/1737271348
733,잠원,잠원스타약국,서울 서초구 잠원동 61-11,02-6952-4332,37.51276655193597,127.01064241462231,http://place.map.kakao.com/801892561
734,고속터미널,천사약국,서울 서초구 반포동 118-3,02-6282-1004,37.503732504211605,127.00598047687299,http://place.map.kakao.com/8092453
735,고속터미널,고속터미널약국,서울 서초구 반포동 19-4,02-595-2260,37.50443169560192,127.00575660196051,http://place.map.kakao.com/2013478749
736,고속터미널,굿모닝약국,서울 서초구 반포동 19-3,02-6282-1213,37.50497597265429,127.00408054433399,http://place.map.kakao.com/11495359
737,고속터미널,위드팜솔약국,서울 서초구 반포동 118-3,02-6282-5134,37.503869442041136,127.00627001216742,http://place.map.kakao.com/16081924
738,고속터미널,고연뿌리약국,서울 서초구 반포동 19-3,02-534-7500,37.50464799363721,127.00444243570499,http://place.map.kakao.com/897528045
739,고속터미널,위드팜수약국,서울 서초구 반포동 118-3,02-599-3909,37.503880249757344,127.00635144181236,http://place.map.kakao.com/11569179
740,고속터미널,사랑의약국,서울 서초구 잠원동 75-13,02-3476-2273,37.50562114801928,127.00187742846106,http://place.map.kakao.com/11053131
741,고속터미널,연세온누리약국,서울 서초구 잠원동 75-19,02-537-8738,37.5060752196704,127.003433679114,http://place.map.kakao.com/13500946
742,고속터미널,희망약국,서울 서초구 잠원동 69-12,02-591-4251,37.506945474173435,127.00626913842676,http://place.map.kakao.com/13508121
743,고속터미널,한샘약국,서울 서초구 잠원동 69-13,02-534-8613,37.50696709107521,127.00640372938965,http://place.map.kakao.com/13505422
744,남부터미널,서초백화점약국,서울 서초구 서초동 1602-1,02-3474-7575,37.4849259143022,127.014771059254,http://place.map.kakao.com/7954140
745,남부터미널,장수알파약국,서울 서초구 서초동 1603-20,02-3487-4233,37.485433878889296,127.016322447563,http://place.map.kakao.com/13508101
746,남부터미널,행복한약국,서울 서초구 서초동 1600-7,02-588-1185,37.48614942529811,127.01523035922207,http://place.map.kakao.com/470424987
747,남부터미널,봄약국,서울 서초구 서초동 1622-19,02-3487-3414,37.4867439644324,127.01618026485201,http://place.map.kakao.com/1686116591
748,남부터미널,서초로하스약국,서울 서초구 서초동 1602-8,02-3471-2662,37.485348360903565,127.01574917657335,http://place.map.kakao.com/13500761
749,남부터미널,엔티약국,서울 서초구 서초동 1446-1,02-6405-5500,37.4845401769207,127.015594106076,http://place.map.kakao.com/995099128
750,남부터미널,원약국,서울 서초구 서초동 1603-8,02-582-2628,37.48531313249893,127.01640382987831,http://place.map.kakao.com/1414294306
751,남부터미널,바른약국,서울 서초구 서초동 1600-11,02-6203-2699,37.4857943906814,127.01551748038601,http://place.map.kakao.com/26944357
752,남부터미널,슈퍼빌온누리약국,서울 서초구 서초동 1446-11,02-521-2468,37.4835777374799,127.01677882581001,http://place.map.kakao.com/13506923
753,남부터미널,자연약국,서울 서초구 서초동 1443-31,02-582-5717,37.485206472186796,127.018701334448,http://place.map.kakao.com/13510099
754,남부터미널,소망약국,서울 서초구 서초동 1603-2,02-598-6335,37.48600422336559,127.01627734424014,http://place.map.kakao.com/21583173
755,양재,양재프라자약국,서울 서초구 양재동 12-10,02-576-9222,37.48398819183666,127.03505708305435,http://place.map.kakao.com/13010227
756,양재,메디피아약국,서울 강남구 도곡동 953-3,02-3463-1547,37.485372417933796,127.03411022366501,http://place.map.kakao.com/18554270
757,양재,온약국,서울 서초구 양재동 24,070-8691-1260,37.482820491535456,127.03503392472628,http://place.map.kakao.com/1882645139
758,양재,메디팜정연약국,서울 강남구 도곡동 952,02-522-5925,37.486418651196544,127.03354196156653,http://place.map.kakao.com/13500422
759,양재,양재미소약국,서울 강남구 도곡동 953-11,070-4101-8242,37.484933436773204,127.03476242011001,http://place.map.kakao.com/608305316
760,양재,다인약국,서울 서초구 양재동 11-17,02-571-1317,37.4845102844711,127.03667869722601,http://place.map.kakao.com/13113878
761,양재,환승약국,서울 서초구 양재동 23,02-571-5622,37.483272865661604,127.03480461521801,http://place.map.kakao.com/8166634
762,양재,셀메드스토리약국,서울 강남구 도곡동 950-8,02-6401-9002,37.486472010963794,127.03592548459473,http://place.map.kakao.com/717110856
763,양재,강남굿모닝약국,서울 강남구 도곡동 957-11,02-529-4155,37.4851340252465,127.03588753173,http://place.map.kakao.com/26416857
764,양재,우리들약국,서울 강남구 도곡동 957-11,02-577-1108,37.4851916952661,127.03586946854901,http://place.map.kakao.com/1713421290
765,양재,해맑은약국,서울 서초구 양재동 12-3,02-579-7715,37.484348551482796,127.035204237258,http://place.map.kakao.com/16705015
766,양재,메디칼하늘약국,서울 강남구 도곡동 957-14,02-562-9972,37.484955849927815,127.03514120472946,http://place.map.kakao.com/8355928
767,양재,약사랑약국,서울 서초구 양재동 23,02-573-1205,37.4833251238223,127.03480577010401,http://place.map.kakao.com/16906897
768,양재,스타약국,서울 강남구 도곡동 957-11,02-3462-3030,37.485184483080424,127.03588303317434,http://place.map.kakao.com/16327616
769,양재,프리모약국,서울 강남구 도곡동 953-1,02-529-3800,37.48525519042793,127.0344425884855,http://place.map.kakao.com/26826334
770,양재,양재뿌리약국,서울 서초구 양재동 19-14,02-572-4799,37.48281946608198,127.03545112936004,http://place.map.kakao.com/1982848103
771,매봉,다나약국,서울 강남구 도곡동 200-10,,37.486394379606,127.04431178270224,http://place.map.kakao.com/1563910712
772,대청,대청약국,서울 강남구 개포동 13-3,02-3412-0106,37.4943425483091,127.07964979008699,http://place.map.kakao.com/1374725058
773,대치,메타팜약국,서울 강남구 대치동 606-4,02-566-2268,37.494280991855796,127.06210860390699,http://place.map.kakao.com/7871554
774,대치,대치참약국,서울 강남구 대치동 622,02-501-5920,37.4936764227663,127.06035762380199,http://place.map.kakao.com/1025597781
775,대치,건강온누리약국,서울 강남구 대치동 316,02-562-1377,37.495332380202896,127.06395950534299,http://place.map.kakao.com/1621631158
776,대치,우리대치약국,서울 강남구 대치동 507,02-569-8009,37.4932638954581,127.061840894179,http://place.map.kakao.com/152959694
777,대치,온누리구인당약국,서울 강남구 대치동 511,02-552-5550,37.4948479964484,127.06657354424601,http://place.map.kakao.com/16588060
778,대치,대치메디칼약국,서울 강남구 대치동 605,02-569-1137,37.49401830205928,127.0613349151791,http://place.map.kakao.com/16527550
779,대치,퍼스트약국,서울 강남구 대치1동 507-2,02-565-3501,37.493840819218,127.06301740514799,http://place.map.kakao.com/16092697
780,대치,킴스약국,서울 강남구 대치동 507-2,02-568-7608,37.4938804972663,127.062954113475,http://place.map.kakao.com/1485557245
781,대치,윈플러스약국,서울 강남구 대치동 507,02-568-3240,37.493304426547105,127.061868066679,http://place.map.kakao.com/9324915
782,대치,동성약국,서울 강남구 대치동 316,02-566-3728,37.4959594437842,127.064027890222,http://place.map.kakao.com/9797428
783,대치,수진약국,서울 강남구 대치동 511,02-554-4691,37.494692987659896,127.066636732349,http://place.map.kakao.com/13508760
784,신사,에메랄드약국,서울 강남구 논현동 4,02-3443-0991,37.51684471263617,127.02208231722992,http://place.map.kakao.com/1332615730
785,신사,가나안약국,서울 강남구 신사동 513-4,02-549-8774,37.517011622353635,127.02084940979428,http://place.map.kakao.com/1153678451
786,신사,신사힐스약국,서울 서초구 잠원동 27-2,02-511-3457,37.5145845439515,127.01952985305901,http://place.map.kakao.com/1280984115
787,신사,신사약국,서울 강남구 신사동 513-1,02-514-3704,37.516867518066604,127.02052812290701,http://place.map.kakao.com/12117430
788,신사,메디칼허브약국,서울 서초구 잠원동 12-21,02-540-5001,37.5166190926188,127.019025891722,http://place.map.kakao.com/1794316584
789,신사,신사온누리약국,서울 강남구 논현동 17-4,02-518-6243,37.515195283549964,127.02036478279206,http://place.map.kakao.com/13507405
790,신사,1층엔약국,서울 강남구 신사동 502-6,02-518-3014,37.51747316492945,127.01951024496526,http://place.map.kakao.com/1837570961
791,신사,하리약국,서울 강남구 논현동 1,02-543-3577,37.5158692700141,127.020156836984,http://place.map.kakao.com/324453408
792,신사,씨티약국,서울 서초구 잠원동 21-3,02-549-1175,37.514988197584564,127.01950620467727,http://place.map.kakao.com/941249999
793,신사,신사웰약국,서울 강남구 논현동 17-5,02-541-8889,37.51502861594474,127.02025954307081,http://place.map.kakao.com/1829812137
794,신사,타워약국,서울 강남구 신사동 501-2,02-543-5759,37.516781071897455,127.02023739383591,http://place.map.kakao.com/1165425094
795,신사,신사드림약국,서울 강남구 신사동 514-16,02-3444-1213,37.5174115105028,127.021722775719,http://place.map.kakao.com/757760982
796,신사,강남퍼스트약국,서울 강남구 논현동 1-1,02-515-7292,37.5161034983741,127.020346931361,http://place.map.kakao.com/16931649
797,신사,신사루체약국,서울 강남구 신사동 514-2,,37.517325061326396,127.02146484672899,http://place.map.kakao.com/2125018461
798,신사,민트약국,서울 강남구 논현동 18,02-511-5002,37.5145357425255,127.02040079927299,http://place.map.kakao.com/1411865692
799,신사,코끼리약국,서울 강남구 논현동 2,02-512-0380,37.5162619513083,127.021052806707,http://place.map.kakao.com/9458160
800,신사,포인트약국,서울 강남구 논현동 3-1,02-547-3196,37.51661772104293,127.02175195544469,http://place.map.kakao.com/19969990
801,신사,신사스타약국,서울 서초구 잠원동 12-25,02-517-0072,37.5171309002693,127.01879074148998,http://place.map.kakao.com/1153124657
802,신사,아이디약국,서울 강남구 신사동 513-3,02-3445-2221,37.516961194007,127.02069103446999,http://place.map.kakao.com/1021944500
803,신사,신사굿약국,서울 강남구 논현동 3-2,02-541-9165,37.516747454074725,127.02181420628844,http://place.map.kakao.com/929183362
804,신사,오렌지약국,서울 강남구 논현동 4-1,02-518-2022,37.5169500845385,127.02232441479299,http://place.map.kakao.com/10634500
805,신사,싱싱온누리약국,서울 강남구 신사동 502-11,070-5025-6227,37.5171163125512,127.01984044915702,http://place.map.kakao.com/498856692
806,신사,오월애약국,서울 강남구 신사동 501,02-544-0519,37.516860433639295,127.01980418459499,http://place.map.kakao.com/27489930
807,신사,신사역365약국,서울 강남구 신사동 667,070-8864-0704,37.516431466793996,127.02032892209999,http://place.map.kakao.com/279808485
808,일원,천사약국,서울 강남구 일원동 715-1,02-459-3702,37.485654211411706,127.08345321698799,http://place.map.kakao.com/9499539
809,일원,열린약국,서울 강남구 일원동 715-1,02-3411-1009,37.48586690103455,127.08337995918815,http://place.map.kakao.com/16330032
810,일원,E대학약국,서울 강남구 일원동 715-1,02-445-1558,37.4858056189691,127.083399112674,http://place.map.kakao.com/10074916
811,일원,삼성정문약국,서울 강남구 일원동 715-1,02-3412-4416,37.485626241835945,127.0835074584778,http://place.map.kakao.com/17675371
812,일원,일원정류장약국,서울 강남구 일원동 718,02-445-7794,37.483823346598,127.08347605488323,http://place.map.kakao.com/1897039353
813,일원,삼성강남약국,서울 강남구 일원동 715-1,02-6959-0293,37.485722684776,127.083457815876,http://place.map.kakao.com/16072296
814,일원,희망약국,서울 강남구 일원동 715-1,02-2226-2256,37.48561900579964,127.08354702419182,http://place.map.kakao.com/10960766
815,일원,독수리약국,서울 강남구 일원동 715-1,02-459-8863,37.4857478778288,127.083507593866,http://place.map.kakao.com/1512103992
816,일원,위드팜바른약국,서울 강남구 일원동 717,02-445-1030,37.48402086919212,127.08445994449471,http://place.map.kakao.com/289302146
817,일원,일원역1번출구약국,서울 강남구 일원동 717,02-445-1011,37.4840749361128,127.08445096011101,http://place.map.kakao.com/256296120
818,일원,샘터약국,서울 강남구 일원동 718,02-2226-0920,37.4837800934379,127.08348279066901,http://place.map.kakao.com/11139298
819,일원,삼성약국,서울 강남구 일원본동 746,02-451-7281,37.4840840338436,127.086816302582,http://place.map.kakao.com/12784569
820,일원,에스엠피약국,서울 강남구 일원동 716,02-2226-1141,37.4846185044591,127.08534253517901,http://place.map.kakao.com/9880742
821,일원,삼성그린약국,서울 강남구 일원동 715-1,02-459-7800,37.48562796948153,127.08361261356873,http://place.map.kakao.com/79209324
822,일원,참약국,서울 강남구 일원동 715-1,02-3412-2577,37.4857442706027,127.083512112575,http://place.map.kakao.com/9427731
823,일원,일원역약국,서울 강남구 일원동 717,02-451-8233,37.4840749361128,127.08445096011101,http://place.map.kakao.com/1224428348
824,수서,수서역정민아약국,서울 강남구 수서동 725,02-3412-7655,37.48661170701587,127.10319393743816,http://place.map.kakao.com/1735519777
825,수서,동인프라자온누리약국,서울 강남구 수서동 713,02-3411-3388,37.488234705993,127.101828000769,http://place.map.kakao.com/10282561
826,수서,수서두리약국,서울 강남구 수서동 724,,37.487312775087204,127.10309766119724,http://place.map.kakao.com/374951856
827,수서,수서옵티마약국,서울 강남구 수서동 714,02-3412-7430,37.48824587849679,127.10245330327885,http://place.map.kakao.com/20996098
828,수서,은혜약국,서울 강남구 수서동 713,02-6289-8767,37.488097959364,127.101588103296,http://place.map.kakao.com/13513193
829,수서,국송약국,서울 강남구 수서동 707,02-459-1445,37.49024187156557,127.10110365403163,http://place.map.kakao.com/8824740
830,수서,수서메디칼약국,서울 강남구 수서동 713,02-2040-6799,37.488025656887714,127.10184580845392,http://place.map.kakao.com/13509932
831,수서,수서홍약국,서울 강남구 수서동 716,,37.48840239403079,127.1037832447862,http://place.map.kakao.com/1130024888
832,수서,세종약국,서울 강남구 수서동 714-1,02-459-9464,37.488527693261716,127.10268435560594,http://place.map.kakao.com/13503776
833,수서,수서역약국,서울 강남구 수서동 728,02-3412-5533,37.4873877325332,127.101858510883,http://place.map.kakao.com/53195335
834,수서,사랑의약국,서울 강남구 수서동 713,02-2040-7933,37.488025656887714,127.10184580845392,http://place.map.kakao.com/13508775
835,수서,기쁨주는약국,서울 강남구 수서동 715,02-6181-3933,37.48800589349428,127.10281819644321,http://place.map.kakao.com/22645042
836,가락시장,뉴프라임약국,서울 송파구 가락동 96-16,02-403-2638,37.494238633315,127.117753416165,http://place.map.kakao.com/8446889
837,가락시장,유창온누리약국,서울 송파구 가락동 96,02-400-7585,37.495093496284795,127.11704007908399,http://place.map.kakao.com/25489957
838,가락시장,참좋은약국,서울 송파구 가락동 99-7,02-2043-7525,37.493587592417995,127.120054700567,http://place.map.kakao.com/110871721
839,가락시장,가락약국,서울 송파구 가락동 96-12,02-449-8421,37.49491314955291,127.11718680410124,http://place.map.kakao.com/9655440
840,가락시장,포도나무약국,서울 송파구 가락동 95-1,,37.4953772556997,127.117098194028,http://place.map.kakao.com/1898576913
841,가락시장,한독약국,서울 송파구 문정동 150-2,02-409-3559,37.4917301849865,127.117799232036,http://place.map.kakao.com/10943958
842,가락시장,나무약국,서울 송파구 문정동 150,02-400-4909,37.49113568358222,127.11763546867893,http://place.map.kakao.com/310309939
843,가락시장,훼미리약국,서울 송파구 문정동 150-26,02-400-2112,37.49156018076408,127.11660261214844,http://place.map.kakao.com/11495606
844,가락시장,한마음약국,서울 송파구 문정동 150-1,02-404-8075,37.4909881840775,127.11736837807,http://place.map.kakao.com/10007167
845,가락시장,소나무약국,서울 송파구 문정동 150-2,02-402-4701,37.4916689617044,127.117753905087,http://place.map.kakao.com/13512453
846,가락시장,화인약국,서울 송파구 문정동 150-2,02-449-0895,37.49177825579966,127.1174804299335,http://place.map.kakao.com/11284225
847,도곡,은혜온누리약국,서울 강남구 대치동 500,02-564-5674,37.4906979941675,127.056090016237,http://place.map.kakao.com/16472200
848,도곡,서이약국,서울 강남구 도곡동 467-14,02-2057-4555,37.4887495450591,127.05321199124901,http://place.map.kakao.com/9481841
849,도곡,다시봄약국,서울 강남구 도곡동 467-12,,37.48908033670187,127.05294085034564,http://place.map.kakao.com/2059317136
850,압구정,구름약국,서울 강남구 신사동 577-6,02-516-0954,37.52546168914,127.027408662589,http://place.map.kakao.com/1871205416
851,압구정,압구정온누리약국,서울 강남구 신사동 580,02-514-0777,37.5265284313031,127.027599110689,http://place.map.kakao.com/13512006
852,압구정,뽀빠이약국,서울 강남구 신사동 610-5,070-8870-7582,37.526140724331796,127.02875627821363,http://place.map.kakao.com/1092972712
853,압구정,새봄약국,서울 강남구 신사동 575,02-542-9307,37.52537911913689,127.025983220619,http://place.map.kakao.com/27538029
854,압구정,여기애가까운약국,서울 강남구 신사동 583-1,02-546-5369,37.52441284226,127.027752183308,http://place.map.kakao.com/941274413
